축제명,개최장소,축제시작일자,축제종료일자,축제내용,주관기관,주최기관,후원기관,전화번호,홈페이지주소,관련정보,소재지도로명주소,소재지지번주소,위도,경도,데이터기준일자,제공기관코드,제공기관명
제13회 영동포도축제,영동군 영동읍 영동군체육관 일원,2017-08-24,2017-08-27,포도축제,"(재)영동축제관광재단, (사)영동포도연합회","충청북도 영동군청, 영동군축제추진위원회","충청북도, 메이빌 농산물공동브랜드",043-745-8918,www.ydft.kr,"포도따기, 포도밟기 등 체험, 농특산물 판매, 전시, 추풍령가요제, 영동포도마라톤 대회",충청북도 영동군 영동읍 영동황간로 122,충청북도 영동군 영동읍 매천리 313,36.1642048,127.7819752,2018-02-23,4440000,충청북도 영동군
제50회 영동난계국악축제,"영동군 영동읍 영동천 일원(하상주차장, 난계사 등)",2017-09-21,2017-09-24,국악축제,"(재)영동축제관광재단, (사)난계기념사업회","충청북도 영동군청, 영동군축제추진위원회","문화체육관광부, 충청북도, 국립국악원, 한국관광공사, 한국지역진흥재단, 한국문황예술위원회",043-745-8917,www.ydft.kr,"어가행렬, 종묘제례, 국악기제작 및 연주체험, 퓨전국악공연, 영동와인축제와 연계",,충청북도 영동군 영동읍 부용리 4-1,36.1736274,127.7739921,2018-02-23,4440000,충청북도 영동군
제8회 대한민국와인축제,영동군 영동읍 영동천일원(하상주차장),2017-09-21,2017-09-24,와인축제,"(재)영동축제관광재단, 영동와인연구회","충청북도 영동군청, 영동군축제추진위원회","한국농수산식품유통공사, 충청북도, 영동군 농산물공동브랜드",043-745-8914,www.ydft.kr,"와인전시, 시음행사, 와인판매, 난계국악축제와 연계",,충청북도 영동군 영동읍 부용리 4-1,36.1736274,127.7739921,2018-02-23,4440000,충청북도 영동군
2017 영동곶감축제,영동군 영동읍 영동천일원(하상주차장),2017-12-15,2017-12-17,곶감축제,"(재)영동축제관광재단, 영동곶감연합회","충청북도 영동군청, 영동군축제추진위원회","충청북도, 메이빌 농산물공동브랜드",043-745-8918,www.ydft.kr,"곶감따기, 곶감 시식, 판매, 공연 프로그램",,충청북도 영동군 영동읍 부용리 4-1,36.1736274,127.7739921,2018-02-23,4440000,충청북도 영동군
제22회 과천축제,과천청사 잔디마당 등 과천시 일원,2018-09-13,2018-09-16,"문화예술 퍼포먼스, 시민참여 프로그램, 플리마켓 등",(재)과천축제,과천시,한국마사회 등,02-504-0945,http://www.gcfest.or.kr,"서울대공원,서울랜드,과천과학관",경기도 과천시 통영로 5 (과천시민회관 2층),경기도 과천시 중앙동 62 과천시민회관 2층,37.4279091,126.9895045,2018-07-31,3970000,경기도 과천시
제11회 마포나루새우젓축제,서울월드컵공원 평화의 광장 일원,2018-10-19,2018-10-21,"개장식, 기념식, 문화행사, 체험행사, 판매행사",마포문화원,서울특별시 마포구,"S-oil, 우리은행, KB손해보험",02-3153-8352,,,서울특별시 마포구 월드컵로 243-60(성산동),서울특별시 마포구 월드컵로 212,37.5642503,126.901951,2018-02-20,3130000,서울특별시 마포구
함창명주페스티벌,명주테마공원,2018-09-07,2018-09-09,"누에고치 체험, 천연염색 등","상주슬로시티주민협의회, 명주잠업영농조합법인",경상북도 상주시청,경상북도/상주시/한국슬로시티본부,054-531-9763,,잠사곤충사업장,경상북도 상주시 함창읍 무운로 1593,경상북도 상주시 함창읍 교촌리 199-1,36.576525,128.160039,2018-02-21,5110000,경상북도 상주시
상주 이야기축제,상주 북천시민공원일원,2018-10-12,2018-10-14,다양한 이야기 체험 및 전시 공연 등,상주시축제추진위원회,경상북도 상주시청,경상북도/상주시,054-537-7108,http://www.sangjustory.com/,,경상북도 상주시 상산로 223,경상북도 상주시 남성동 140-3,36.410959,128.158961,2018-02-21,5110000,경상북도 상주시
정의공주와 함께 하는 도봉 한글잔치,방학동 원당샘공원,2015-10-09,2015-10-09,"문화예술공연, 백일장 및 사생대회, 전통놀이체험 등",서울특별시 도봉구청,"서울특별시 도봉구청, 도봉문화원",,02-905-4026,,,서울특별시 도봉구 원당샘공원,,37.66667,127.03375,2018-05-01,3090000,서울특별시 도봉구
정월대보름 큰잔치,"도봉구청 광장, 중랑천변",2015-03-05,2015-03-05,"길놀이, 풍물놀이, 소원지 붙이기, 달집태우기, 민속놀이 체험마당,청소년 동아리 프로그램 공연 및 솟대외줄타기 공연",서울특별시 도봉구청,서울특별시 도봉구청,,02-2091-2254,,,서울특별시 도봉구 마들로 656,,37.6707774,127.0483768,2018-05-01,3090000,서울특별시 도봉구
도봉서원 춘·추향제,도봉서원,2015-04-28,2015-10-22,"분향례, 전폐례, 초헌례, 아헌례, 종헌례, 음복례 등 제례, 추모음악회",서울특별시 도봉구청,"서울특별시 도봉구청,(사)도봉서원",,02-905-4026,,,서울특별시 도봉구 도봉산길 90,,37.6853826,127.0325089,2018-05-01,3090000,서울특별시 도봉구
도봉산 산사축제,도봉산 일대,2015-10-02,2015-10-03,"산사음악회, 영산재, 사찰음식전 등",서울특별시 도봉구청,서울특별시 도봉구청,,02-905-4026,,,서울특별시 도봉구,,37.6864694,127.033968,2018-05-01,3090000,서울특별시 도봉구
도봉구민 건강축제,"도봉구청, 중랑천변",2015-10-16,2015-10-17,"도봉구민 걷기대회, 장애체험, 가상음주체험, 유방암검진, 신장초음파 검사, 건강관련 패널전시, 건강강좌 등",서울특별시 도봉구청,서울특별시 도봉구청,,02-2091-4422,,,서울특별시 도봉구 마들로 656,,37.6686287,127.0470496,2018-05-01,3090000,서울특별시 도봉구
도봉 과학축전,"도봉구청 로비, 아뜨리움, 대강당, 광장 등",2015-10-23,2015-10-28,과학 체험· 전시·교육·이벤트 마당 등,서울특별시 도봉구청,서울특별시 도봉구청,,02-2091-2316,http://science.dobong.go.kr,,서울특별시 도봉구 마들로 656,,37.6686287,127.0470496,2018-05-01,3090000,서울특별시 도봉구
도봉구 등축제,우이천,2015-09-11,2015-09-30,"둘리와 친구들과 어우러지는 범선, 동물친구들 등과 추석을 앞두고 있어 전통춤 시리즈로 구성하여 등 전시",서울특별시 도봉구청,서울특별시 도봉구청,,02-2091-2254,,,서울특별시 도봉구,,37.6617028,127.0382005,2018-05-01,3090000,서울특별시 도봉구
정의공주와 함께 하는 도봉 한글잔치,방학동 원당샘공원,2015-10-09,2015-10-09,"문화예술공연, 백일장 및 사생대회, 전통놀이체험 등",서울특별시 도봉구청,"서울특별시 도봉구청, 도봉문화원",,02-905-4026,,,서울특별시 도봉구 원당샘공원,,37.66667,127.03375,2018-05-01,3090000,서울특별시 도봉구
정월대보름 큰잔치,"도봉구청 광장, 중랑천변",2015-03-05,2015-03-05,"길놀이, 풍물놀이, 소원지 붙이기, 달집태우기, 민속놀이 체험마당,청소년 동아리 프로그램 공연 및 솟대외줄타기 공연",서울특별시 도봉구청,서울특별시 도봉구청,,02-2091-2254,,,서울특별시 도봉구 마들로 656,,37.6707774,127.0483768,2018-05-01,3090000,서울특별시 도봉구
도봉서원 춘·추향제,도봉서원,2015-04-28,2015-10-22,"분향례, 전폐례, 초헌례, 아헌례, 종헌례, 음복례 등 제례, 추모음악회",서울특별시 도봉구청,"서울특별시 도봉구청,(사)도봉서원",,02-905-4026,,,서울특별시 도봉구 도봉산길 90,,37.6853826,127.0325089,2018-05-01,3090000,서울특별시 도봉구
도봉산 산사축제,도봉산 일대,2015-10-02,2015-10-03,"산사음악회, 영산재, 사찰음식전 등",서울특별시 도봉구청,서울특별시 도봉구청,,02-905-4026,,,서울특별시 도봉구,,37.6864694,127.033968,2018-05-01,3090000,서울특별시 도봉구
도봉구민 건강축제,"도봉구청, 중랑천변",2015-10-16,2015-10-17,"도봉구민 걷기대회, 장애체험, 가상음주체험, 유방암검진, 신장초음파 검사, 건강관련 패널전시, 건강강좌 등",서울특별시 도봉구청,서울특별시 도봉구청,,02-2091-4422,,,서울특별시 도봉구 마들로 656,,37.6686287,127.0470496,2018-05-01,3090000,서울특별시 도봉구
도봉 과학축전,"도봉구청 로비, 아뜨리움, 대강당, 광장 등",2015-10-23,2015-10-28,과학 체험· 전시·교육·이벤트 마당 등,서울특별시 도봉구청,서울특별시 도봉구청,,02-2091-2316,http://science.dobong.go.kr,,서울특별시 도봉구 마들로 656,,37.6686287,127.0470496,2018-05-01,3090000,서울특별시 도봉구
도봉구 등축제,우이천,2015-09-11,2015-09-30,"둘리와 친구들과 어우러지는 범선, 동물친구들 등과 추석을 앞두고 있어 전통춤 시리즈로 구성하여 등 전시",서울특별시 도봉구청,서울특별시 도봉구청,,02-2091-2254,,,서울특별시 도봉구,,37.6617028,127.0382005,2018-05-01,3090000,서울특별시 도봉구
청원생명축제,오창미래지 테마공원,2018-10-05,2018-10-14,친환경 농축산물 축제,청원생명축제추진위,청주시,"농림축산식품부, 충청북도, 충청북도교육청",043-201-2092,http://bio.cheongju.go.kr,,충청북도 청주시 청원구 오창읍 미래지로 99,충청북도 청주시 청원구 오창읍 성산리 322-5,36.7330755,127.407385,2018-08-09,5710000,충청북도 청주시
세종대왕과 초정약수 축제,내수초정문화공원,2018-05-25,2018-05-27,초정약수 관련,청주문화원,청주시,,043-201-2042,해당없음,,충청북도 청주시 청원구 내수읍 초정약수로 853-11,충청북도 청주시 청원구 내수읍 초정리 64-2번지,36.721607,127.601269,2018-08-09,5710000,충청북도 청주시
홍길동축제,"홍길동테마파크,공설운동장",2017-04-22,2017-04-30,"공연,체험,전시행사 등",장성군축제위원회,전라남도 장성군,"전라남도,한국관광공사",061-390-7242,http://tour.jangseong.go.kr,"필암서원,축령산",전라남도 장성군 황룡면 홍길동로 431,전라남도 장성군 황룡면 아곡리 373,35.320062,126.727118,2018-05-14,4980000,전라남도 장성군
백양단풍축제,"백암산,백양사일원",2017-10-27,2017-10-29,"공연,체험,전시행사 등",장성군축제위원회,전라남도 장성군,"전라남도,한국관광공사",061-390-7242,http://tour.jangseong.go.kr,"장성호관광지, 백양사",전라남도 장성군 북하면 백양로 1236,전라남도 장성군 북하면 약수리 26,35.440252,126.883232,2018-05-14,4980000,전라남도 장성군
고로쇠축제,북하면 가인마을,2017-03-18,2017-03-19,"공연,체험,전시행사 등",고로쇠축제추진위원회,고로쇠축제추진위원회,,061-390-7242,http://tour.jangseong.go.kr,"장성호관광지, 백양사",전라남도 장성군 북하면 백양로 1236,전라남도 장성군 북하면 약수리 26,35.440252,126.883232,2018-05-14,4980000,전라남도 장성군
산소축제,축령산조림성공지 일원(모암리 소재),2017-09-16,2017-09-17,"공연,체험,전시행사 등",장성축령산편백산소축제추진위원회,장성축령산편백산소축제추진위원회,,061-390-7242,http://tour.jangseong.go.kr,"홍길동테마파크, 필암서원",전라남도 장성군 서삼면 모암길 153-95,전라남도 장성군 서삼면 모암리 679,35.372009,126.746613,2018-05-14,4980000,전라남도 장성군
단감축제,남면 자풍마을,2017-11-04,2017-11-04,"체험, 전시행사 등",비나리마을축제추진위원회,비나리마을축제추진위원회,,061-390-7242,http://tour.jangseong.go.kr,"단감시식, 판매, 수확체험",전라남도 장성군 남면 자풍길 20-3,전라남도 장성군 남면 덕성리 705,35.252498,126.771304,2018-05-14,4980000,전라남도 장성군
장성가을 노란꽃잔치,장성읍 황룡강 일원(공설운동장),2017-10-13,2017-10-29,"공연,체험,전시행사 등",장성군축제위원회,전라남도 장성군,,061-390-7380,http://tour.jangseong.go.kr,"황룡강, 옐로우시티",전라남도 장성군 장성읍 문화로 81,전라남도 장성군 장성읍 기산리 461-1,35.182511,126.463925,2018-05-14,4980000,전라남도 장성군
2020 예천세계곤충엑스포,예천공설운동장 및 곤충생태원 일원,2020-05-01,2020-05-17,"곤충주제관, 생명산업대전관, 곤충놀이관 등",예천세계곤충엑스포추진위원회,예천군,경상북도,054-650-6034,http://www.ycg.kr/open.content/tour/festivals/expo/,,경상북도 예천군 예천읍 충효로 395,경상북도 예천군 예천읍 동본리 186,36.658337,128.463487,2019-12-10,5230000,경상북도 예천군
부여서동연꽃축제,서동공원,2018-07-06,2018-07-15,"연꽃과 서동선화의 사랑이야기를 담은 각종 전시, 공연, 체험 등",부여서동연꽃축제추진위원회,부여군,"문화체육관광부,충청남도,한국관광공사,한국지역진흥재단",041-830-2211,www.부여서동연꽃축제.kr,,충청남도 부여군 부여읍 궁남로 52,충청남도 부여군 부여읍 동남리 117,36.27145891,126.9136908,2018-10-01,4570000,충청남도 부여군
백제문화제,정림사지 박물관 일원,2018-09-14,2018-09-22,사비 백제 역사를 담은 문화제,충청남도+부여군+공주시,(재)백제문화제추진위원회,한국관광공사,041-830-2211,http://www.baekje.org/html/kr/,,충청남도 부여군 부여읍 정림로 83,,36.27902473,126.9128811,2018-10-01,4570000,충청남도 부여군
달맞이축제,울릉문화예술체험장,2019-02-19,2019-02-19,"달집태우기, 풍물패공연, 소원소지 적기, 민속놀이 등",장흥달맞이놀이마당추진위원회,울릉군,-,,http://www.ulleung.go.kr/tour/,우리 전통문화를 선양하고 사라져가는 세시풍습을 재현하여 민속축제로 승화,경상북도 울릉군 울릉읍 도동2길 66,경상북도 울릉군 울릉읍 도동리 206-1,37.48430421,130.9056438,2019-09-30,5260000,경상북도 울릉군
울릉해변가요제,저동항,2019-08-02,2019-08-03,"군민가요제, 불꽃놀이",(사)울릉청년단,울릉군,-,054-791-4116,http://www.ulleung.go.kr/tour/,주민과 관광객들의 만남의 장으로 한여름밤의 낭만을 즐길 수 있는 행사,경상북도 울릉군 울릉읍 도동2길 66,경상북도 울릉군 울릉읍 도동리 206-1,37.48430421,130.9056438,2019-09-30,5260000,경상북도 울릉군
오징어축제,저동항(울릉군전역),2019-08-05,2019-08-07,"오징어 맨손잡기, 수중 보물찾기, 바다 미꾸라지잡기, 해변몽돌쌓기, 오징어 요리경연 등",오징어축제추진위원회,울릉군,"경상북도, 관내 기관 및 사회단체",054-790-6425,http://www.ulleung.go.kr/tour/,"울릉도의 비경을 배경으로 푸른 동해 바다에서 오징어를 잡아보고,오징어 건조과정을 체험하면서 각종 오징어요리를 즐길 수 있는 행사",경상북도 울릉군 울릉읍 도동2길 66,경상북도 울릉군 울릉읍 도동리 206-1,37.48430421,130.9056438,2019-09-30,5260000,경상북도 울릉군
우산문화제,도동항,2020-09-17,2020-09-18,"개막축하행사전통민속놀이, 체험행사 등",울릉문화원,울릉군,-,054-791-0245,http://www.ulleungu.co.kr,울릉도 개척 정신을 기리고 울릉이 문화의 고장임을 널리 소개,,경상북도 울릉군 울릉읍 도동리 169,37.48343755,130.9020734,2019-09-30,5260000,경상북도 울릉군
제37회 고성군민의 날 및 수성문화제,고성종합운동장외 부대시설,2019-09-23,2019-09-25,"수성제례, 군민의 날 행사 등",고성문화원,고성군수성문화제위원회,"고성군, 고성군의회, 고성경찰서, 강원도고성교육지원청, 고성소방서, 22사단 및 예하 부대, 관내 기관, 단체, 학교",,,,강원도 고성군 간성읍 수성로 87,,38.375898,128.4649304,2019-09-17,4340000,강원도 고성군
제21회 고성통일명태축제,강원도 고성군 거진읍 거진11리 해변,2019-10-17,2019-10-20,고성통일명태와 떠나는 평화 여행,고성통일명태축제위원회,고성통일명태축제위원회,고성군,033-682-8008,http://myeongtae.com,명태축제,강원도 고성군 거진읍 해오름해변길 125,강원도 고성군 거진읍 거진리 340-28,38.43974397,128.4541653,2019-09-17,4340000,강원도 고성군
욕지 섬 문화축제,욕지면 동항(불곡)물량장 일원,2019-10-11,2019-10-12,"욕지고구마축제, 고등어축제, 생활낚시체험 등",욕지개척기념사업위원회,"통영시, 욕지면",욕지면 전 기관.단체,055-650-3580,,"연화도용머리, 출렁다리, 노대군도",경상남도 통영시 욕지면 욕지일주로 77,경상남도 통영시 욕지면 동항리 547-35,34.63336365,128.2650885,2019-11-26,5330000,경상남도 통영시
사량도 옥녀봉 축제,사량면 진촌물량장 일원,2019-10-25,2019-10-26,"길놀이, 안전기원제, 어선퍼레이드, 개회식, 특별공연, 면민장기자랑, 경품추첨",사량면주민자치위원회,"통영시, 사량면",사량면 전 기관.단체,055-650-3620,,,경상남도 통영시 사량면 상도일주로 1580-13,경상남도 통영시 사량면 금평리 123-1,34.84549681,128.2197953,2019-11-26,5330000,경상남도 통영시
한산도 바다체험축제,한산면 추봉리 봉암마을,2019-06-15,2019-06-16,"식전행사, 개막식, 맨손고기잡기, 바다보물찾기, 바지락캐기, 오션가약, 수상자전거, 대나무낚시체험, 후리그물고기잡이, 요트체험 등 각종 부대행사",한산면주민자치위원회,"통영시, 한산면",한산면 전 기관.단체,055-650-3600,,,,경상남도 통영시 한산면 추봉리 911-4,34.75930638,128.5100671,2019-11-26,5330000,경상남도 통영시
통영한산대첩축제,"도남관광단지, 한산앞바다 등 통영시 일원",2019-08-10,2019-08-14,"이순신장군 행렬 및 군점, 한산대첩 재현, 이순신 워터파크, 드론 라이트쇼",(재)한산대첩기념사업회,통영시,"문화체육관광부, 경상남도, 한국관광공사, 해군본부",055-644-5222,http://www.hansanf.org,,,경상남도 통영시 도남동 642-4,34.82567453,128.4334058,2019-11-26,5330000,경상남도 통영시
태화강 연등축제,울산 태화강 둔치,2019-05-11,2019-05-13,연등축제,태화강 연등축제조직 위원,울산광역시 불교종단연합회,,052-266-3318,http://www.ubcf.net,"봉축점등식과 이웃종교합창제, 행복바라미행사, 불꽃놀이를 시작으로둘째날 봉축법요식과 부처님이운행렬, 시민축하공연",,울산광역시 남구 무거동 1,35.5506625,129.3257957,2019-10-31,3700000,울산광역시 남구
울산대공원 장미축제,울산대공원,2019-05-22,2019-05-26,장미축제,"울산광역시청, (주)SK에너지","울산광역시청, (주)SK에너지",,052-229-3342,http://ulsanrosefestival.com/,"개막식, 공연행사, 체험전시, 행사 레이져 쇼, 뮤직박스 운영 등",울산광역시 남구 대공원로 94,울산광역시 남구 옥동 146-1,35.530972,129.2939697,2019-10-31,3700000,울산광역시 남구
울산고래축제,울산광역시 남구 장생포 일원,2019-06-07,2019-06-09,고래축제,고래문화재단,울산광역시 남구청,,052-226-1991,http://www.ulsanwhale.com,"선사고래잡이재현, 체험행사, 고래바다여행선체험 등",울산광역시 남구 장생포고래로 288번길 20,울산광역시 남구 매암동 139-26,35.50439928,129.387293,2019-10-31,3700000,울산광역시 남구
처용문화제,달동 문화공원,2019-10-18,2019-10-20,처용축제,울산광역시청,울산광역시청,,052-259-7916,,처용맞이,울산광역시 남구 번영로 200,울산광역시 남구 달동 413-13,35.54289852,129.327076,2019-10-31,3700000,울산광역시 남구
선암호수 불꽃축제,선암호수공원,2019-11-09,2019-11-09,불꽃축제,경상일보,울산광역시 남구청,,052-226-5415,,불꽃축제 및 1인 미디어 콘텐츠 공모전,,울산광역시 남구 선암동 490-2,35.516881,129.325438,2019-10-31,3700000,울산광역시 남구
정서진 해넘이 축제,인천 서구 정서진,2018-12-31,2018-12-31,"일몰이벤트, 축하공연",인천광역시 서구문화원,인천광역시 서구,,032-560-5933,http://www.seo.incheon.kr/,,인천광역시 서구 정서진1로 41,인천광역시 서구 오류동 1563,37.55843765,126.6074637,2019-12-03,3560000,인천광역시 서구
2019 정읍벚꽃축제,정읍천변 일원,2019-03-30,2019-04-07,"개막식,프로그램,부대행사",정읍시,정읍시,,063-539-5233,,,전라북도 정읍시 벚꽃로 401,전라북도 정읍시 시기동 407-3,35.561248,126.8557305,2019-09-30,4690000,전라북도 정읍시
정읍드론페스티벌,내장산문화광장,2019-05-04,2019-05-05,"개막식,드론경진대회, 전시 및 체험",정읍시,정읍시,,063-539-5233,,,전라북도 정읍시 내장산로 390,전라북도 정읍시 부전동 1004,35.5255969,126.8961462,2019-09-30,4690000,전라북도 정읍시
내장산캠핑대회,내장산문화광장,2019-05-17,2019-05-19,"음악회(개막식),캠핑카 및 용품전시, 체험 등",정읍시,정읍시,,063-539-5233,,,전라북도 정읍시 내장산로 390,전라북도 정읍시 부전동 1004,35.5255969,126.8961462,2019-09-30,4690000,전라북도 정읍시
제14회 정읍 평생학습축제 및 제6회 주민자치 프로그램 발표회,정읍 연지아트홀,2019-10-19,2019-10-20,"개막식, 무대발표회, 시민특강, 홍보체험부스, 이벤트 등",정읍시,정읍시,해당없음,063-539-5162,http://www.jeongeup.go.kr,,전라북도 정읍시 중앙로 73,전라북도 정읍시 연지동 39-6,35.57039929,126.8489005,2019-09-30,4690000,전라북도 정읍시
제30회 정읍사문화제,정읍사문화공원 일원,2019-09-28,2019-09-29,"기념행사, 공연행사, 부대행사, 체험행사 등",(사)정읍사문화제 제전위원회,정읍시,,063-539-5173,http://www.jchf.or.kr,,전라북도 정읍시 정읍사로 541,전라북도 정읍시 시기동 81-7,35.55073015,126.8615763,2019-09-30,4690000,전라북도 정읍시
제14회 정읍 구절초꽃축제,정읍 구절초 테마공원,2019-10-05,2019-10-20,"구절초 꽃길산책, 꽃밭음악회 등",정읍시구절초축제추진위원회,정읍시,전라북도+한국수자원공사,063-539-6172,http://www.jeongeup.go.kr/culture,,전라북도 정읍시 산내면 청정로 926-65,전라북도 정읍시 산내면 매죽리 617,35.55427272,127.0188952,2019-09-30,4690000,전라북도 정읍시
제52회 황토현동학농민혁명기념제,황토현 전적지 일원,2019-05-11,2019-05-12,"기념식, 공식제례, 청소년 축전, 연계행사, 체험행사 등",(사)동학농민혁명계승사업회,정읍시,,063-539-5432,http://www.donghak.or.kr,,전라북도 정읍시 덕천면 동학로 742,전라북도 정읍시 덕천면 하학리 산35,35.63130705,126.8313917,2019-09-30,4690000,전라북도 정읍시
의정부가족문화대축제,시청앞 도로 및 잔디광장(소방서옆),2019-05-04,2019-05-04,"개막식, 어린이날 표창, 공연마당, 게임마당, 체험마당 등",의정부문화원,경기도 의정부시청,,031-828-4242,,,경기도 의정부시 시민로 1,경기도 의정부시 의정부2동 323,37.738089,127.0338356,2019-07-01,3820000,경기도 의정부시
2019 하하페스티벌,시청앞 도로 및 잔디광장(소방서옆),2019-05-26,2019-05-26,"세계인의 날 기념식, 국가별 문화소개부스, 체험마당, 먹거리마당 등",의정부외국인노동자지원센터,경기도 의정부시청,,031-828-4243,,,경기도 의정부시 시민로 12,경기도 의정부시 의정부동 489,37.737579,127.036375,2019-07-01,3820000,경기도 의정부시
제9회 의정부시장기대축전 개회식,의정부체육관,2019-03-31,2019-03-31,각 종목별 대회 시작을 기념하는 대축전 개회식,의정부시체육회,의정부시체육회,,031-850-5755,,,경기도 의정부시 체육로 90(녹양동),경기도 의정부시 녹양동 173,37.76001299,127.0279671,2019-07-01,3820000,경기도 의정부시
2019년 한마음 건강걷기대회,중랑천 동막교 ~ 호원동 건영아파트,2019-04-13,2019-04-13,"건강걷기대회 행사, 홍보부스 등 운영",의정부시체육회/경기일보,의정부시체육회,,031-850-5755,,,경기도 의정부시 동막교~ 호원동 건영아파트,경기도 의정부시 동막교~ 호원동 건영아파트,37.726824,127.052208,2019-07-01,3820000,경기도 의정부시
제7회 어울림 등반대회,의정부시 직동근린공원 소풍길 일원,2019-04-27,2019-04-27,장애인들과 함께 하는 등반 행사,의정부시장애인체육회,의정부시장애인체육회,,031-850-5757,,,경기도 의정부시 직동근린공원 소풍길 일원,경기도 의정부시 의정부동 326-26,37.739235,127.032021,2019-07-01,3820000,경기도 의정부시
제26회 의정부시 단오제 씨름왕 선발대회,시청 앞 상설야외무대,2019-05-25,2019-05-25,"각 동별 단체전 및 개인전 씨름대회, 제기차기 행사",의정부시체육회,의정부시씨름협회,,031-850-5755,,,경기도 의정부시 의정로80번길 18,경기도 의정부시 의정부동 477-1,37.7396594,127.035815,2019-07-01,3820000,경기도 의정부시
제6회 의정부시장배 장애인생활체육대회,의정부체육관,2019-09-19,2019-09-19,후크볼 등 장애인생활체육대회를 알리는 개회식,의정부시장애인체육회,의정부시장애인체육회,,031-850-5757,,,경기도 의정부시 체육로 90(녹양동),경기도 의정부시 녹양동 173,37.76001299,127.0279671,2019-07-01,3820000,경기도 의정부시
스타와 함께하는 농구 자선경기,의정부체육관,2019-09-29,2019-09-29,한기범선수 및 스타들의 농구 자선경기,(사)한기범 희망나눔,(사)한기범 희망나눔,,02-3391-7091,,,경기도 의정부시 체육로 90(녹양동),경기도 의정부시 녹양동 173,37.76001299,127.0279671,2019-07-01,3820000,경기도 의정부시
제13회 전국 어울림 마라톤대회,의정부시장애인종합복지관 일원,2019-10-05,2019-10-05,장애인과 비장애인이 함께 하는 전국 마라톤대회,의정부시장애인체육회,의정부장애인종합복지관,,031-850-5755,,,경기도 의정부시 용민로 160(민락동),경기도 의정부시 민락동 735-17,37.74379518,127.0923061,2019-07-01,3820000,경기도 의정부시
안중근정신 찾기 자전거 대행진,역전근린공원 일원,2019-10-26,2019-10-26,안중근을 기리기 위한 시민 자전거 대행진,안중근평화재단 청년아카데미,의정부시,,031-828-4373,,,경기도 의정부시 평화로493번길 48,경기도 의정부시 의정부동 161-13,37.73769519,127.0474449,2019-07-01,3820000,경기도 의정부시
2019 의정부과학축제,의정부과학도서관,2019-05-25,2019-05-25,"2019년 5월중 개최, 과학축제",경기도 의정부시 도서관정책과,경기도 의정부시 도서관정책과,,031-828-8669,http://www.uilib.go.kr,,경기도 의정부시 추동로124번길 52(신곡동),경기도 의정부시 신곡동 124-1,37.74473004,127.069134,2019-07-01,3820000,경기도 의정부시
천상병예술제,의정부예술의전당일원,2019-04-20,2019-04-28,고 천상병시인을 기리는 다양한 행사,의정부예술의전당,의정부예술의전당,,031-828-5839,,,경기도 의정부시 의정로 1,경기도 의정부시 의정부2동 323,37.73338595,127.0341284,2019-07-01,3820000,경기도 의정부시
의정부음악극축제,의정부예술의전당일원,2019-05-10,2019-05-19,"음악극 공연, 체험 및 전시행사",의정부예술의전당,의정부예술의전당,,031-828-5895,http://www.uac.or.kr,,경기도 의정부시 의정로 1,경기도 의정부시 의정부2동 323,37.73338595,127.0341284,2019-07-01,3820000,경기도 의정부시
의정부 국제가야금축제,의정부예술의전당,2019-10-04,2019-10-05,가야금문화 전승 및 경연대회,의정부예술의전당,의정부예술의전당,,031-828-5832,http://www.uac.or.kr,,경기도 의정부시 의정로 1,경기도 의정부시 의정부2동 323,37.73338595,127.0341284,2019-07-01,3820000,경기도 의정부시
블랙뮤직페스티벌,의정부예술의전당야외무대,2019-08-29,2019-08-31,힙합장르를 중심으로 하는 의정부 대표 뮤직 페스티벌,의정부예술의전당,의정부예술의전당,,031-828-5841,http://www.uac.or.kr,,경기도 의정부시 의정로 1,경기도 의정부시 의정부2동 323,37.73338595,127.0341284,2019-07-01,3820000,경기도 의정부시
의정부 국제가야금축제,의정부예술의전당,2019-09-01,2019-10-31,"2019년 9~10월 중 개최, 가야금문화 전승 및 경연대회",(사)죽파류 가야금산조보존회,의정부예술의전당,,031-828-5832,http://www.uac.or.kr,,경기도 의정부시 의정로 1,경기도 의정부시 의정부2동 323,37.73338595,127.0341284,2019-07-01,3820000,경기도 의정부시
제8회의성세계연축제,안계면 위천생태하천,2019-05-04,2019-05-06,연축제,의성세계연축제집행위원회,의성군축제추진위원회,의성군,054-830-6096,http://tour.usc.go.kr,,,경상북도 의성군 안계면 용기리 620-5,36.36933577,128.4330374,2019-05-22,5150000,경상북도 의성군
제10회의성봉양자두홍보및체험행사,봉양종합체육공원,2019-07-13,2019-07-13,봉양자두홍보,자두체험행사추진위원회,자두체험행사추진위원회,의성군,054-830-5195,http://tour.usc.go.kr,,경상북도 의성군 봉양면 도리원4길 34,경상북도 의성군 봉양면 화전리 63,36.30337648,128.5824608,2019-05-22,5150000,경상북도 의성군
제1회의성슈퍼푸드마늘축제,"의성마늘테마파크, 의성전통시장,군청앞 중앙로",2019-10-04,2019-10-06,마늘축제,의성슈퍼푸드마늘축제추진위원회,의성군축제추진위원회,의성군,054-830-6096,http://tour.usc.go.kr,,경상북도 의성군 의성읍 경북대로 5690,경상북도 의성군 의성읍 원당리 208-1,36.35137471,128.6768191,2019-05-22,5150000,경상북도 의성군
백마권역겨울놀이축제,사리백마권역활성화센터일원,2019-01-04,2019-01-20,눈썰매 타기 얼음썰매타기 빙어뜰채잡기,백마권역영농조합법인,괴산군,백마권역 영농조합법인,043-836-9911,,,충청북도 괴산군 사리면 사리로 517,,36.83880878,127.6510421,2019-09-16,4460000,충청북도 괴산군
연풍조령제 및 자전거문화축제,연풍면 연풍중학교 일원,2018-10-12,2018-10-13,"조령제 및 전통문화 시연, 한지관련 체험, 자전거 대회 등",연풍면 축제추진위원회,괴산군,연풍면 기관단체 등,043-830-2472,,,충청북도 괴산군 연풍면 향교로 55,,36.76687438,128.0002915,2019-09-16,4460000,충청북도 괴산군
목도백중놀이,불정면 목도강수욕장 일원,2018-10-05,2018-10-05,백중관련 전통놀이 시연 및 농특산물 홍보,불정면 리우회,괴산군,불정면 기관단체 등,043-830-2622,,,,충청북도 괴산군 불정면 목도리 864-19,36.87799674,127.8580104,2019-09-16,4460000,충청북도 괴산군
괴산고추축제,괴산군청 앞 광장,2019-08-29,2019-09-01,"괴산고추 등 농특산물 홍보, 괴산지역 문화소개",괴산축제위원회,괴산군,"문체부,농식품부, 농촌진흥청, 충청북도 등 8개기관",043-830-3463,http//festival.go.kr,,충청북도 괴산군 괴산읍 임꺽정로 90,,36.81574779,127.7875348,2019-09-16,4460000,충청북도 괴산군
청천환경문화축제,청천면 환경문화전시관 일대,2018-08-04,2018-08-04,환경관련 문화행사 및 지역농특산물 홍보,청천환경문화축제추진위원회,괴산군,청천면 기관단체 등,043-830-2532,,,충청북도 괴산군 청천면 괴산로 1248,,36.65503541,127.7454853,2019-09-16,4460000,충청북도 괴산군
괴산올갱이축제,칠성면 둔율마을 일원,2018-08-17,2018-08-19,농특산물(올갱이) 홍보 및 지역홍보,둔율올갱이마을 영농조합법인,괴산군,칠성면 기관단체 등,043-830-3903,,,충청북도 괴산군 칠성면 둔율길 142,,36.78303875,127.8487774,2019-09-16,4460000,충청북도 괴산군
감물감자축제,감물면사무소 일원,2019-06-22,2019-06-22,농특산물(감자) 홍보 및 지역홍보,감물면 축제추진위원회,괴산군,감물면 기관단체 등,043-830-2433,,,충청북도 괴산군 감물면 남양동길 38,,36.83949451,127.8710463,2019-09-16,4460000,충청북도 괴산군
문광은행나무마을축제,문광면 양곡저수지 일대,2018-10-20,2018-10-20,"은행굽기, 김장체험",은행나무마을축제추진위원회,괴산군,문광면 기관단체 등,043-830-2513,,,충청북도 괴산군 문광면 괴산로양곡5길 113-2,,36.77352068,127.7424552,2019-09-16,4460000,충청북도 괴산군
제15회 구리한강 유채꽃 축제,구리한강 시민공원,2015-05-08,2015-05-10,유채꽃 축제,(사)한국예총 구리지회,경기도 구리시,경기도+한국관광공사+경기관광공사+경기문화재단,031-550-2065,http://www.guri.go.kr,고구려대장간마을,경기도 구리시 토평동 883-2,경기도 구리시 토평동 883-2,37.342841,127.081044,2019-12-06,3980000,경기도 구리시
제15회 구리 코스모스 축제,구리한강 시민공원,2015-10-09,2015-10-11,코스모스 축제,(사)한국예총 구리지회,경기도 구리시,경기도+한국관광공사+경기관광공사+경기문화재단,031-550-2065,http://www.guri.go.kr,고구려대장간마을,경기도 구리시 토평동 883-2,경기도 구리시 토평동 883-2,37.342841,127.081044,2019-12-06,3980000,경기도 구리시
제16회 구리한강 유채꽃 축제,구리한강 시민공원,2016-05-13,2016-05-15,유채꽃 축제,(사)한국예총 구리지회,경기도 구리시,경기도+한국관광공사+경기관광공사,031-550-2065,http://www.guri.go.kr,,경기도 구리시 토평동 883-2,경기도 구리시 토평동 883-2,37.342841,127.081044,2019-12-06,3980000,경기도 구리시
제16회 구리 코스모스 축제,구리한강 시민공원,2016-09-23,2016-09-25,코스모스 축제,(사)한국예총 구리지회,경기도 구리시,경기도+한국관광공사+경기관광공사,031-550-2065,http://www.guri.go.kr,,경기도 구리시 토평동 883-2,경기도 구리시 토평동 883-2,37.342841,127.081044,2019-12-06,3980000,경기도 구리시
제17회 구리 유채꽃 축제,구리한강 시민공원,2017-05-12,2017-05-14,"무대공연, 체험부스운영, 먹거리 체험, 꽃 관람",(사)한국예총 구리지회,경기도 구리시,경기도+한국관광공사+경기관광공사,031-550-2065,http://www.guri.go.kr,,경기도 구리시 토평동 829,경기도 구리시 토평동 829,37.342841,127.081044,2019-12-06,3980000,경기도 구리시
제17회 구리 코스모스 축제,구리한강 시민공원,2017-09-22,2017-09-24,"무대공연, 체험부스운영, 먹거리 체험, 꽃 관람",(사)한국예총 구리지회,경기도 구리시,경기도+한국관광공사+경기관광공사,031-550-2065,http://www.guri.go.kr,,경기도 구리시 토평동 829,경기도 구리시 토평동 829,37.342841,127.081044,2019-12-06,3980000,경기도 구리시
제18회 구리 유채꽃 축제,구리한강 시민공원,2018-05-04,2018-05-06,"무대공연, 체험부스운영, 먹거리 체험, 꽃 관람",(사)한국예총 구리지회,경기도 구리시,경기도+한국관광공사+경기관광공사,031-550-2065,http://www.guri.go.kr,,경기도 구리시 토평동 883-2,경기도 구리시 토평동 883-2,38.342841,128.081044,2019-12-06,3980000,경기도 구리시
제18회 구리 코스모스 축제,구리한강 시민공원,2018-10-05,2018-10-07,"무대공연, 체험부스운영, 먹거리 체험, 꽃 관람",(사)한국예총 구리지회,경기도 구리시,경기도+한국관광공사+경기관광공사,031-550-2065,http://www.guri.go.kr,,경기도 구리시 토평동 883-2,경기도 구리시 토평동 883-2,38.342841,128.081044,2019-12-06,3980000,경기도 구리시
제19회 구리 유채꽃 축제,구리한강 시민공원 및 시가지 일원,2019-05-10,2019-05-12,한강 꽃단지 체험 및 시가지 공연 등,(사)한국예총 구리지회,경기도 구리시,경기도+한국관광공사+경기관광공사,031-550-2065,http://www.guri.go.kr,,경기도 구리시 토평동 883-2,경기도 구리시 토평동 883-2,38.342841,128.081044,2019-12-06,3980000,경기도 구리시
제19회 구리 코스모스 축제,구리한강 시민공원 및 시가지 일원,2019-09-27,2019-09-29,한강 꽃단지 체험 및 시가지 공연 등,(사)한국예총 구리지회,경기도 구리시,경기도+한국관광공사+경기관광공사,031-550-2065,http://www.guri.go.kr,,경기도 구리시 토평동 883-2,경기도 구리시 토평동 883-2,38.342841,128.081044,2019-12-06,3980000,경기도 구리시
청풍호벚꽃축제,청풍면,2019-04-06,2019-04-08,벚꽃축제,(재)제천문화재단,(재)제천문화재단,제천시,043-641-4870,www.jcac.or.kr,,충청북도 제천시 의림대로 242,,37.148685,128.216854,2019-12-09,4400000,충청북도 제천시
제천국제음악영화제,"시내일원,청풍면,의림지",2019-08-08,2019-08-13,음악영화제,제천국제음악영화제집행위원회,제천국제음악영화제집행위원회,제천시,043-646-2242,www.jimff.org,,충청북도 제천시 의림대로 242,,37.148685,128.216854,2019-12-09,4400000,충청북도 제천시
제천의병제,구동명초부지,2019-10-11,2019-10-12,의병제,(재)제천문화재단,(재)제천문화재단,제천시,043-641-4870,www.jcac.or.kr,,충청북도 제천시 의림대로 242,,37.148685,128.216854,2019-12-09,4400000,충청북도 제천시
겨울왕국 제천페스티벌,시내 및 의림지 일원,2019-12-21,2020-01-27,겨울벚꽃 및 얼음 축제,(재)제천문화재단,(재)제천문화재단,제천시,043-641-4870,www.jcac.or.kr,,충청북도 제천시 의림대로 242,,37.148685,128.216854,2019-12-09,4400000,충청북도 제천시
김천국제가족연극제,김천문화예술회관,2019-07-19,2019-07-28,연극공연 및 연기콘테스트 등,김천국제가족연극제추진위원회 영남일보,김천시,"한국문화예술위원회, 경상북도,경상북도교육청",054-435-8279,www.gitf.co.kr,-,경상북도 김천시 영남대로 1321,경상북도 김천시 백옥동 77-1,36.125843,128.081077,2019-12-20,5060000,경상북도 김천시
김천예술제,김천시 일원,2019-10-10,2019-10-20,시민촬영대회 시민가요제 청소년가요제 동화구연대회 등,한국예총 김천지회,김천시,,054-433-5558,www.artgc.or.kr,-,경상북도 김천시 남산동 3-14,경상북도 김천시 남산동 3-14,36.118896,128.12205,2019-12-20,5060000,경상북도 김천시
정월대보름달맞이축제,직지천 고수부지,2019-02-22,2019-02-22,달집태우기 줄다리기 등,김천문화원,김천시,,054-434-4336,www.gcculture.or.kr,-,경상북도 김천시 남산동 3-1,경상북도 김천시 남산동 3-1,36.118748,128.1221092,2019-12-20,5060000,경상북도 김천시
김천자두포도축제,김천시종합스포츠타운 및 체험농장,2019-07-18,2019-07-21,자두포도 품평회 자두포도 수확체험 각종 문화예술공연 등,김천시자두포도축제추진위원회,김천시,,054-421-2602,www.gcjadu.com,"특산물(자두, 포도)",경상북도 김천시 운동장길 1,경상북도 김천시 삼락동 488-1,36.144924,128.088088,2019-12-20,5060000,경상북도 김천시
제27회 용문산 영목제,용문산관광지내,2019-10-12,2019-10-12,"산신제, 헌주제, 기원제",양평문화원,용문분원,양평군,031-774-3866,,,경기도 양평군 용문면 용문산로 655,경기도 양평군 용문면 신점리 519-5,37.5461701,127.5821614,2019-09-20,4170000,경기도 양평군
계양산국악제,계산체육공원,2019-04-27,2019-04-28,국악경연대회,계양구,계양구,,032-450-5874,,,인천광역시 계양구 주부토로 570,,37.54504438,126.7289968,2019-10-18,3550000,인천광역시 계양구
옥정호 꽃걸음 빛바람 축제,운암면 요산공원,2019-04-27,2019-04-28,"노래자랑, 문화예술공연, 각설이 품바공연, 초청가수 공연, 청소년 가요댄스 경연대회 등",운암면 지역발전협의회,운암면 지역발전협의회,"전라북도, 임실군",063-640-4083,www.옥정호꽃빛.com,N,전라북도 임실군 운암면 입석1길 59,전라북도 임실군 운암면 입석리 427,35.63203851,127.1526815,2019-12-11,4760000,전라북도 임실군
의견문화제,오수의견공원,2019-05-04,2019-05-06,"반려동물과 함께하는 열린음악회, 개판콘서트, 반려견 콘테스트, 키즈 페스티벌 등",의견문화제전위원회,의견문화제전위원회,"전라북도, 임실군",063-642-5292,www.osudog.com,N,전라북도 임실군 오수면 충효로 2096-16,전라북도 임실군 오수면 오수리 33,35.54520247,127.3326779,2019-12-11,4760000,전라북도 임실군
섬진강다슬기축제,섬진강생활체육공원,2019-07-20,2019-07-21,"맨손 물고기잡기 대회, 다슬기 까기 대회, 다슬기 잡기 대회, 민속경기 등",섬진강다슬기축제위원회,섬진강다슬기축제위원회,"전라북도, 임실군",063-640-2313,,N,전라북도 임실군 덕치면 강운로 11,전라북도 임실군 덕치면 회문리 907-1,35.52099481,127.1471835,2019-12-11,4760000,전라북도 임실군
필봉마을굿축제,필봉문화촌,2019-08-15,2019-08-18,"국가무형문화재 초청공연, 전국농악경연대회, 국제교류 문화공연 등",임실필봉농악보존회,임실필봉농악보존회,"문화체육관광부, 임실군",063-640-2901,www.pilbong.co.kr,N,전라북도 임실군 강진면 강운로 272,전라북도 임실군 강진면 필봉리 88-1,35.53639442,127.1544452,2019-12-11,4760000,전라북도 임실군
사선문화제,관촌사선대,2019-09-20,2019-09-22,"사선녀선발전국대회, 호남좌도농악전국대회, 축하방송 등",사선문화제전위원회,사선문화제전위원회,임실군,063-643-3988,,N,전라북도 임실군 관촌면 사선2길 68-7,전라북도 임실군 관촌면 관촌리 222,35.6723571,127.2746245,2019-12-11,4760000,전라북도 임실군
임실N치즈축제,"임실치즈테마파크, 임실치즈마을",2019-10-03,2019-10-06,"국가대표 왕치즈피자 만들기, 우유드림 행복드림 퍼레이드, 임실N치즈페어, 치즈경매 등",임실N치즈축제 제전위원회,임실군,"문화체육관광부, 농림축산식품부, 전라북도 등",063-643-3900,www.imsilfestival.com,N,전라북도 임실군 성수면 도인2길 50,전라북도 임실군 성수면 도인리 689,35.63310329,127.3012599,2019-12-11,4760000,전라북도 임실군
산타축제,임실치즈테마파크,2019-12-21,2019-12-25,"산타플래시몹 퍼레이드, 19명의 산타를 찾아라, 산타경연대회 등",(재)임실치즈테마파크,(재)임실치즈테마파크,임실군,063-643-2300,www.cheesepark.kr,N,전라북도 임실군 성수면 도인2길 50,전라북도 임실군 성수면 도인리 689,35.63310329,127.3012599,2019-12-11,4760000,전라북도 임실군
강감찬축제,낙성대공원 일대,2019-10-18,2019-10-19,"강감찬 장군 출병식 및 전승행렬 거리 퍼레이드, 고려마을 테마 체험부스, 강감찬 장군 추모제향 등 다채로운 행사 진행",관악구,관악구,,02-879-5603,http://www.gwanak.go.kr/html/gang/sub/sub.html,,"서울특별시 관악구 관악로 145, 교육사업과(관악구청)",서울특별시 관악구 봉천동 1570-1,37.47820977,126.9515032,2019-09-24,3200000,서울특별시 관악구
한성백제문화제,올림픽공원 일대,2019-09-27,2019-09-29,"역사문화거리행렬, 한성백제체험마을, 한성백제갈라퍼레이드, 개폐막식 등 축하공연, 한성백제 성곽돌기, 각종 체험행사 등",한성백제문화제추진위원회,서울특별시 송파구,,02-2147-2800,www.baekjefest.com,,서울특별시 송파구 올림픽로 424,서울특별시 송파구 방이동 88,37.52034114,127.1155184,2019-05-31,3230000,서울특별시 송파구
석촌호수벚꽃축제,석촌호수 일대,2019-04-05,2019-04-12,"벚꽃조명길, 벚꽃은하수길, 벚꽃체험, 벚꽃프린지, 벚꽃음악회, 벚꽃시네마, 푸드트럭 등",서울특별시 송파구,서울특별시 송파구,,02-2147-2800,http://culture.songpa.go.kr/user.kdf?a=songpa.menu.MenuApp&c=1001&cate_id=AM0201002000,,서울특별시 송파구 석촌호수로 197,서울특별시 송파구 잠실동 47,37.5066934,127.0989034,2019-05-31,3230000,서울특별시 송파구
진주남강유등축제,진주성 및 진주남강일원,2019-10-01,2019-10-13,"개제식(초혼점등), 소망등 달기, 추억의 유등띄우기, 창작등 전시, 진주성 둘레길등 전시, 한국의 등·세계풍물등 전시 자치단체 상징등 전시 등",진주남강유등축제제전위원회,경상남도 진주시/진주문화예술재단,"문화체육관광부,경상남도,한국관광공사,경상남도교육청,언론기관",055-755-9111,http://www.yudeung.com,,경상남도 진주시 강남로 291번길 10,경상남도 진주시 강남동 98,35.18725548,128.0855326,2019-10-30,5310000,경상남도 진주시
개천예술제,진주시 일원,2019-10-03,2019-10-10,"성화 채화, 진다례 말차시연, 호국타종, 성화 봉송 및 안치, 제향, 진군명령 퍼포먼스, 개천합창제, 진주오광대 정기공연, 진주·삼천포 농악, 종야축제(뮤지컬 진주대첩), 서제, 개제식, 가장행렬경진대회, 예술경연대회, 진주대첩승전재현행사, 종야축제, 예술문화축하행사, 체험행사, 각종 전시 등",개천예술제 제전위원회,경상남도 진주시 / (사)한국예총 진주지회,,055-752-0111,http://www.gaecheonart.com,,경상남도 진주시 강남로 215(칠암동) 문화예술회관 6층,경상남도 진주시 칠암동 500-15,35.18727536,128.0917424,2019-10-30,5310000,경상남도 진주시
코리아드라마페스티벌,"경남문화예술회관, 장대동 남강둔치 일원",2019-10-01,2019-10-13,"코리아드라마어워즈, KDF콘서트, 드라마영상국제포럼, 부대행사 등",(사)드라마페스티벌 조직위원회,(사)드라마페스티벌 조직위원회,"문화체육관광부,경상남도,진주시",055-755-2363,http://www.kdfo.org,,경상남도 진주시 신안로 104(신안동) 원불교 건물 3층,경상남도 진주시 신안동 10-10,35.18734031,128.0711471,2019-10-30,5310000,경상남도 진주시
진주수상뮤직페스티벌,망경동 남강둔치 일원,2019-08-02,2019-08-04,"수상뮤직공연, 힐링 푸드존 등",KNN,경상남도 진주시/KNN,,070-4275-0503,http://www.knn.co.kr,,부산광역시 해운대구 센텀서로 30 KNN 타워,부산광역시 해운대구 우동 1468,35.17205967,129.1284343,2019-10-30,5310000,경상남도 진주시
진주논개제,진주성 일원,2019-05-24,2019-05-26,"헌다례 및 신위순행, 의암별제, 논개 순국 재현극, 교방행렬, 진주교방의악가무, 사랑 실은 수레와 꿈꾸는 논개 이야기, 솟대쟁이 놀이, 교방문화 체험행사 등",진주논개제 제전위원회,경상남도 진주시/진주문화원/(사)진주민속예술보존회,,055-746-5001,http://jjcc.or.kr/,,경상남도 진주시 진양호로 476,경상남도 진주시 남성동 3-18,35.19079391,128.0776702,2019-10-30,5310000,경상남도 진주시
제1회 인천송도크루즈불꽃축제,골든하버 인천항크루즈터미널,2019-04-26,2019-04-26,크루즈 모항 개장 기념 불꽃축제,"해양수산부, 연수구, 인천항만공사","연수구 축제추진위원회, 인천항만공사, 인천테크노파크","인천광역시, 신한은행",032-749-7302,,,,인천광역시 연수구 송도동 300-3,37.420393,126.597523,2019-10-16,3520000,인천광역시 연수구
능허대문화제,선학체육관,2019-12-13,2019-12-14,"능허대 관련 각종 공연, 전시 및 체험프로그램",연수구,연수구 축제추진위원회,,032-749-7302,http://www.neungheodaefestival.or.kr/,,인천광역시 연수구 경원대로 526,,37.43088646,126.7018224,2019-10-16,3520000,인천광역시 연수구
2019 동작복지나눔축제,숭실대학교,2019-08-24,2019-08-24,"사회복지의 날 기념식, 복지나눔콘서트, 오색복지 체험·나눔부스 등",동작구지역사회보장협의체·축제추진위원회,동작구,,02-820-9536,없음,없음,서울특별시 동작구 상도로 369,서울특별시 동작구 상도동 511,,,2019-12-02,3190000,서울특별시 동작구
동작구 도서관 축제,보라매공원,2019-10-21,2019-10-21,"도서관 홍보, 도서전시, 공연, 체험프로그램 운영 등",동작구 교육정책과,동작구도서관협의회,,02-820-9360,동작구통합도서관(http://lib.dongjak.go.kr),,서울특별시 동작구 노량진로 74,서울특별시 동작구 노량진로 74,37.51272028,126.9333201,2019-12-02,3190000,서울특별시 동작구
동작가족한마음축제,보라매공원,2019-10-19,2019-10-19,"구민체육대회, 축하공연, 동작가족미니랜드, 주민체험부스 운영 등",동작가족한마음축제 추진위원회,동작구 체육회,,02-820-1321,없음,없음,서울특별시 동작구 여의대방로20길 33,서울특별시 동작구 신대방동 395,,,2019-12-02,3190000,서울특별시 동작구
제7회 도심 속 바다축제,노량진수산시장 일대,2019-10-12,2019-10-13,"바다콘서트, 맨손활어잡기, 모의경매, 루프탑 파티, 먹거리장터 등",동작구축제추진위원회,동작구축제추진위원회,서울시,02-823-9330,www.dof.or.kr(미개통),없음,서울특별시 동작구 노들로 674,서울특별시 동작구 노들로 674,,,2019-12-02,3190000,서울특별시 동작구
서울장미축제,서울장미공원,2019-05-17,2019-06-02,장미개화시기 중랑아티스트 공연 및 수림대 공원에서 수준높은 문화공연과 중랑천 둔치에 부스 및 특설무대 설치하고 다양고 성대한 문화축제 개최,중랑구,중랑구,"현대자동차, 우리은행 등",02-2094-1822,http://www.jungnang.go.kr/seoulRose/,,중랑구 중랑천로 332,서울특별시 중랑구 묵동 378,37.6148099,127.073526,2019-11-25,3060000,서울특별시 중랑구
용마폭포 문화예술축제,용마폭포공원,2019-10-12,2019-10-13,"클래식, 성악 등 가을 분위기에 어울리는 공연 및 각종 체험행사 등",중랑구,중랑구,,02-2094-1824,http://jungnang.go.kr,,서울특별시 중랑구 용마산로 250-12,서울특별시 중랑구 면목동 산 1-4,37.573335,127.089125,2019-11-25,3060000,서울특별시 중랑구
중랑 해맞이행사,용마산 5보루,2020-01-01,2020-01-01,"우리구의 발전을 기원하는 해맞이행사, 문화행사 등",중랑구,중랑구,새마을운동중랑구지회,02-2094-1825,http://jungnang.go.kr,,용마산 5보루,용마산 5보루,37.562325,127.102032,2019-11-25,3060000,서울특별시 중랑구
밀양아리랑대축제,영남루 및 밀양강변 일원,2017-05-18,2017-05-21,문화예술축제,(재)밀양문화재단,밀양시,"문화체육관광부, 경상남도, KBS창원방송총국 등",055-359-4521,http://arirang.or.kr/xe/main,"표충사, 얼음골, 호박소 등",경상남도 밀양시 중앙로 324,경상남도 밀양시 내일동 40번지,35.4915418,128.7551172,2019-03-18,5360000,경상남도 밀양시
제4회 칠곡 세계 인형음악극 축제,칠곡군 교육문화회관,2015-08-27,2015-08-30,국내외 인형극단 공연,대구예술대학교,대구예술대학교,"경상북도,칠곡군",054-971-2543,www.chilgokmpf.com,칠곡보,경상북도 칠곡군 왜관읍 관문로1길 32,경상북도 칠곡군 왜관읍 석전리 254,35.99199957,128.4173003,2019-06-14,5220000,경상북도 칠곡군
제3회 낙동강세계평화 문화대축전,칠곡보 생태공원,2015-10-15,2015-10-18,"6.25전쟁 마지막 보루였던 낙동강 칠곡지역에서 지구촌과 한반도의 평화 정착을 염원하는 축제 - 공연, 전시, 체험, 참여행사 및 부대행사",낙동강세계평화문화대축전 추진위원회,낙동강세계평화문화대축전 추진위원회,문화체육관광부,054-979-6100,www.nakdongriver-peacefestival.or.kr/,"칠곡보, 칠곡 호국평화기념관, 구상문학관, 가실성당, 칠곡보 오토캠핑장",,경상북도 칠곡군 석적읍 중지리 552,36.0182307,128.4011405,2019-06-14,5220000,경상북도 칠곡군
제5회 칠곡 세계 인형음악극 축제,칠곡군 교육문화회관,2016-08-26,2016-08-29,국내외 인형극단 공연,대구예술대학교,대구예술대학교,"경상북도,칠곡군",054-971-2543,www.chilgokmpf.com,칠곡보,경상북도 칠곡군 왜관읍 관문로1길 32,경상북도 칠곡군 왜관읍 석전리 254,35.99199957,128.4173003,2019-06-14,5220000,경상북도 칠곡군
제4회 낙동강세계평화 문화대축전,칠곡보 생태공원,2016-09-30,2016-10-30,"6.25전쟁 마지막 보루였던 낙동강 칠곡지역에서 지구촌과 한반도의 평화 정착을 염원하는 축제공연, 전시,체험, 참여행사 및 부대행사",낙동강세계평화문화대축전 추진위원회,문화체육관광부,"경상북도,칠곡군",054-979-6100,www.nakdongriver-peacefestival.or.kr/,"칠곡보, 칠곡 호국평화기념관, 구상문학관, 가실성당, 칠곡보 오토캠핑장",,경상북도 칠곡군 석적읍 중지리 552,36.0182307,128.4011405,2019-06-14,5220000,경상북도 칠곡군
제6회 칠곡 세계 인형음악극 축제,칠곡군 교육문화회관,2017-08-24,2017-08-27,국내외 인형극단 공연,칠곡군,대구예술대학교 문화예술연구소,경상북도,054-979-6433,www.chilgokmpf.com,,경상북도 칠곡군 왜관읍 관문로1길 32,경상북도 칠곡군 왜관읍 석전리 254,35.99199957,128.4173003,2019-06-14,5220000,경상북도 칠곡군
제5회 낙동강세계평화 문화대축전,칠곡군 생태공원,2017-09-22,2017-09-24,"6.25전쟁 마지막 보루였던 낙동강 칠곡지역에서 지구촌과 한반도의 평화 정착을 염원하는 축제 - 공연, 전시, 체험, 참여행사 및 부대행사","경상북도, 칠곡군",낙동강세계평화문화대축전 추진위원회,문화체육관광부,054-979-6100,www.nakdongriver-peacefestival.or.kr,,,경상북도 칠곡군 석적읍 중지리 552,36.0182307,128.4011405,2019-06-14,5220000,경상북도 칠곡군
제7회 칠곡 세계 인형음악극 축제,칠곡군 교육문화회관,2018-08-23,2018-08-26,국내외 인형극단 공연,칠곡문화원,칠곡군,경상북도,054-977-5700,www.chilgokmpf.com,,경상북도 칠곡군 왜관읍 관문로1길 32,경상북도 칠곡군 왜관읍 석전리 254,35.99199957,128.4173003,2019-06-14,5220000,경상북도 칠곡군
제6회 낙동강세계평화 문화대축전,칠곡군 생태공원,2018-10-12,2018-10-14,"6.25전쟁 마지막 보루였던 낙동강 칠곡지역에서 지구촌과 한반도의 평화 정착을 염원하는 축제 - 공연, 전시, 체험, 참여행사 및 부대행사",낙동강세계평화문화대축전 추진위원회,"경상북도, 칠곡군, 대한민국 국방부",문화체육관광부,054-979-6100,www.nakdongriver-peacefestival.or.kr,,,경상북도 칠곡군 석적읍 중지리 552,36.0182307,128.4011405,2019-06-14,5220000,경상북도 칠곡군
제7회 낙동강세계평화문화 대축전,칠곡보생태공원,2019-10-11,2019-10-13,"개폐막식, 공연,전시,체험 등",경상북도+칠곡군,낙동강세계평화문화대축전 추진위원회,문화체육관광부,054-979-6100,www.nakdongriver-peacefestival.or.kr,,,경상북도 칠곡군 석적읍 중지리 552,36.019199,128.401401,2019-06-14,5220000,경상북도 칠곡군
제8회 세계인형음악극축제,칠곡군 교육문화회관 등,2019-08-22,2019-08-25,"공연, 부대체험행사",경상북도+칠곡군,칠곡문화원,,054-979-6433,http://www.chilgokmpf.com/www/main,,경상북도 칠곡군 왜관읍 관문로1길 32,,35.99199957,128.4173003,2019-06-14,5220000,경상북도 칠곡군
모란축제추진위원회,모란오거리쉼터,2019-10-01,2019-10-31,지역상인들과 시민화합의장 마련,성남동,성남동 상가번영회,,,,,경기도 성남시 중원구 제일로 35번길 51,경기도 성남시 중원구 성남동 3439,37.4320045,127.1315674,2019-07-31,3780000,경기도 성남시
은행골한마음잔치,은행2동 초등학교,2019-05-01,2019-05-31,은행2동 350년 된 은행나무 보호수 행목제 시작으로 부대행사,은행2동,은행골 한마음잔치 추진위원회,,,,,경기도 성남시 중원구 순환로 447번길 11,경기도 성남시 중원구 은행동 652,37.4609942,127.170801,2019-07-31,3780000,경기도 성남시
중원한마당축제,종합운동장보조구장(미정),2019-09-01,2019-09-30,"중원구민 한마당 음악축제, 주민자치센터 작품 발표",중원구청 가정복지과,중원한마당축제추진위원회,,,,,경기도 성남시 중원구 광명로 377,경기도 성남시 중원구 금광동 2685,37.4487779,127.1681499,2019-07-31,3780000,경기도 성남시
분당구민 한마음 축제,야외공연장 중앙공원(미정),2019-10-01,2019-10-31,"행복한 분당, 화합하고 하나되는 어울림 마당 조성",분당구청 가정복지과,분당 아트 페스티벌위원회,,,,,경기도 성남시 분당구 성남대로 550,경기도 성남시 분당구 수내동 65,37.3778859,127.1246764,2019-07-31,3780000,경기도 성남시
청계산철쭉축제,옛골입구,2019-04-27,2019-04-27,청계산 철쭉제 개화시기 축제알림,고등동,청계산 철쭉축제추진위원회,,,,,경기도 성남시 수정구 상적동 216-2,경기도 성남시 수정구 상적동 216-2,37.42989648,127.0716316,2019-07-31,3780000,경기도 성남시
수정숯골축제,성남초교(미정),2019-10-01,2019-10-31,수정구지역이 조선시대 숯을 구어 장에 팔았던 숯골을 축제 유래로 수정구민 화합축제,수정구청 가정복지과,수정숯골축제 추진위원회,,,,,경기도 성남시 수정구 수정로 233,경기도 성남시 수정구 태평동 7236,37.4462664,127.1445135,2019-07-31,3780000,경기도 성남시
벌터산 축제,벌터산공원,2019-04-01,2019-04-30,지역주민 화합,수진2동,벌터산 축제 추진위원회,,,,,경기도 성남시 수정구 수진동 산41-3,경기도 성남시 수정구 수진동 산41-3,37.4358321,127.1254889,2019-07-31,3780000,경기도 성남시
구로G페스티벌,서울특별시 구로구 안양천 둔치,2019-09-27,2019-09-29,구민이 주체가 되어 자발적으로 참여하는 구로구민을 위한 축제,구로구,서울특별시 구로구청,"구로문화재단, 구로문화원",02-860-2060,www.guro.go.kr,,서울특별시 구로구 구로동 621-9,서울특별시 구로구 구로동 621-9,37.501473,126.872383,2019-10-31,3160000,서울특별시 구로구
2019 보정역생활문화센터 <청춘파티  - 특별프로그램>,보정역생활문화센터,2019-12-13,2019-12-13,"강연자, 참여자가 ''''인생'''', ''''청춘'''', ''''문화''''를 키워드로 모여 능정적 참여자로서 서로에게 배우는 생활 속 프로그램",용인문화재단,용인문화재단,,031-260-3320,www.yicf.or.kr,,경기도 용인시 기흥구 용구대로 2585,경기도 용인시 기흥구 보정동 568 보정역 생활문화센터,37.31629272,127.1081614,2019-12-09,4050000,경기도 용인시
할미성 대동제,용인중앙시장 광장,2020-10-15,2020-10-15,길놀이 행사 및 할미성 대동굿 12거리 재연,할미성대동굿보존회,용인문화원,용인시,031-324-9600,http://www.ycc50.org/,,경기도 용인시 처인구 중부대로 1199,경기도 용인시 처인구 삼가동 560,37.24086706,127.1779688,2019-12-09,4050000,경기도 용인시
포은문화제,정몽주 묘역,2020-10-11,2020-10-13,"관혼상제, 인문학 강의, 북콘서트, 각종 경연대회, 체험부스",용인문화원,용인문화원,용인시,031-324-9600,www.poeun.co.kr,,경기도 용인시 처인구 중부대로 1199,경기도 용인시 처인구 삼가동 560,37.24086706,127.1779688,2019-12-09,4050000,경기도 용인시
신안튤립축제,신안튤립공원(임자도대광해변일원),2019-04-12,2019-04-21,"예술공연, 사진촬영대회, 섬등산대회, 각종 체험행사",신안튤립축제추진위원회,신안군,,061-240-4041,www.tour.shinan.go.kr,,전라남도 신안군 임자면 대광해수욕장길 179,,35.10291103,126.0725098,2019-09-23,5010000,전라남도 신안군
2019 신안 섬 갯벌 축제,증도면 일원,2019-08-02,2019-08-11,"개막행사 : 방송축하쇼, 해상불꽃쇼문화행사 : 케이팝EDM페스타, 갯벌콘서트, 바다음악회체험행사 : 바다,갯벌스포츠 체험/키즈 워터파크 갯벌 놀이터, 호핑투어, 갯벌원정대스포츠행사 : 전국 카누대회, 전국패들보드대회, 전국 마라톤(달리기)대회, 갯벌 스포츠 종목",신안군,신안군,,061-240-8684,www.tour.shinan.go.kr,,전라남도 신안군증도면 짱뚱어해변길,,,,2019-09-23,5010000,전라남도 신안군
수선화축제,지도읍 선도,2019-03-01,2019-03-12,"체험프로그램, 자전거타기 등",축제조직위,축제조직위,,,www.tour.shinan.go.kr,,전라남도 신안군 지도읍 선도,,34.9899521,126.2587574,2019-09-23,5010000,전라남도 신안군
간재미 축제,비금/도초,2019-04-26,2019-04-27,"간재미 비빔밥 만들기, 간재미 요리대회, 시식회, 간재미 껍질벗기기, 간재미 예쁘게 썰기 대회 등",축제조직위,축제조직위,,,www.tour.shinan.go.kr,,전라남도 신안군 도초면,,34.70361517,125.9534187,2019-09-23,5010000,전라남도 신안군
흑산도홍어축제,흑산도,2019-05-10,2019-05-11,"홍어 시식회, 홍어요리 전시관, 풍어제, 위판행사, 가요 열창, 흑산홍어 어구 정리 체험, 홍어 O, X 퀴즈 등",축제조직위,축제조직위,,,www.tour.shinan.go.kr,,전라남도 신안군 흑산도,,,,2019-09-23,5010000,전라남도 신안군
섬 깡다리 축제,임자도,2019-06-07,2019-06-08,"시식회, 활어잡기, 토굴체험 등",축제조직위,축제조직위,,,www.tour.shinan.go.kr,,전라남도 신안군 임자도,,,,2019-09-23,5010000,전라남도 신안군
섬 병어 축제,지도,2019-06-14,2019-06-15,"길놀이, 용왕제, 병어시식회, 신안 농수산물판매행사, 각종 체험행사 등",축제조직위,축제조직위,,,www.tour.shinan.go.kr,,전라남도 신안군 지도,,34.83364292,126.351408,2019-09-23,5010000,전라남도 신안군
섬 수국 축제,도초도,2019-06-14,2019-06-19,"다채로운 수국꽃 관람 및 전시, 체험 프로그램",축제조직위,축제조직위,,,www.tour.shinan.go.kr,,전라남도 신안군 도초도,,,,2019-09-23,5010000,전라남도 신안군
증도 송어 축제,증도,2019-06-15,2019-06-16,"바다송어 요리 시식회, 올레 스템프 투어, 한마음 가요 잔치, 슬로시티 증도 푸드관, 친환경 녹색장터 운영 등",축제조직위,축제조직위,,,www.tour.shinan.go.kr,,전라남도 신안군 증도,,35.00283443,126.1396378,2019-09-23,5010000,전라남도 신안군
임자도 민어 축제,임자도,2019-08-03,2019-08-04,"개매기,후리질 체험, 해변모래조각, 찜질 바닷속 보물찾기, 민어요리 전시와 시식회, 민어 깜짝 경매, 민어 장사 씨름대회 등",축제조직위,축제조직위,,,www.tour.shinan.go.kr,,전라남도 신안군 임자도,,,,2019-09-23,5010000,전라남도 신안군
불볼락 축제,홍도,2019-09-26,2019-09-28,"불볼락 낚시대회, 불볼락 깜짝경매, 어민 자정선언문 낭독",축제조직위,축제조직위,,061-240-4051,www.tour.shinan.go.kr,,전라남도 신안군 홍도,,,,2019-09-23,5010000,전라남도 신안군
왕새우 축제,안좌도,2019-09-20,2019-09-28,"수산물 깜짝경매, 왕새우 잡기체험, 초청가수 공연, 레크리에이션, 신안군OX퀴즈대회, 왕새우가요제, 새우껍질벗기기",축제조직위,축제조직위,,260-240-3919,www.tour.shinan.go.kr,,전라남도 신안군 안좌도,,,,2019-09-23,5010000,전라남도 신안군
천안흥타령춤축제,삼거리공원,2019-09-25,2019-09-29,춤경연 거리댄스퍼레이드 국제춤대회 등,천안문화재단,천안문화재단,,041-900-7020,http://www.cfac.or.kr/Home/Perf/Fesitival.aspx,,충청남도 천안시 동남구 삼룡4길 118-9,,,,2019-09-26,6440000,충청남도
천안예술제,도솔광장,2019-10-12,2019-10-14,"9개지부별(문인,연극,미술,무용,사진,음악,연예,국악, 영화) 작품발표회 및 전시 공연 등",천안예총,천안예총,,041-561-1522,http://www.cheonanart.co.kr/board_KvHe80,,충청남도 천안시 동남구 천안대로 844,,,,2019-09-26,6440000,충청남도
입장거봉포도축제,입장초등학교운동장,2019-09-09,2019-09-10,거봉가요제 등,입장거봉포도축제추진위원회(041-521-6847),입장거봉포도축제추진위원회(041-521-6847),,,,,충청남도 천안시 서북구 입장면 하장4길 19,,,,2019-09-26,6440000,충청남도
천안성환배축제,성환문화회관,2019-10-27,2019-10-27,공연 전시 품평회 판매 이벤트 등,성환청년회의소,성환청년회의소,,041-581-1771,,,충청남도 천안시 서북구 성환읍 성진로 15,,,,2019-09-26,6440000,충청남도
천안호두축제,광덕쉼터,2019-10-13,2019-10-14,호두사랑노래경연대회 호두 전시 및 판매장 운영,천안시호두축제추진위원회,천안시호두축제추진위원회,,041-521-4701,,,충청남도 천안시 동남구 광덕면 광풍로 277,,,,2019-09-26,6440000,충청남도
천안북면위례벚꽃축제,북면은석초등학교운동장,2019-04-14,2019-04-15,아름다운 벚꽃길(14km)이 펼쳐지는 청정지역 홍보,북면위례벚꽃축제추진위원회,북면위례벚꽃축제추진위원회,,041-521-4721,,,충청남도 천안시 동남구 북면 용암3길 10,,,,2019-09-26,6440000,충청남도
천안춤영화제,영화관,2019-09-06,2019-09-08,영상공모전  야외상영회,(재)충남문화산업진흥원,(재)충남문화산업진흥원,,041-415-0096,,,충청남도 천안시 동남구 중앙로 111,,,,2019-09-26,6440000,충청남도
공주 석장리 세계구석기축제,석장리박물관,2019-05-03,2019-05-06,"네안데르탈인 특별전시전, 별빛토크쇼, 구석기문화 체험 등",공주석장리구석기축제조직위원회,공주시,,041-840-8112,,,충청남도 공주시 금벽로 990,충청남도 공주시 석장리동 118,,,2019-09-26,6440000,충청남도
계룡산벚꽃축제,계룡산 동학사 일원,2019-04-05,2019-04-16,"야간경관 설치, 계룡산벚꽃가요제, 분청사기 만들기, 먹거리 운영 등",계룡산축제추진위원회,공주시,,041-840-8093,,,충청남도 공주시 반포면 동학사1로 167-31,충청남도 공주시 반포면 학봉리 631-9,,,2019-09-26,6440000,충청남도
백제문화제,금강신관공원 및 공산성 일원,2019-09-28,2019-10-06,"K-POP 한류페스티벌, 웅진성퍼레이드, 체험마당, 먹거리마당, 농특산물판매 등",공주시백제문화선양위원회,백제문화제추진위원회,,041-840-8069,,,충청남도 공주시 신관동 553,충청남도 공주시 신관동 553,,,2019-09-26,6440000,충청남도
보령머드축제,대천해수욕장 일원,2019-07-19,2019-07-28,천혜의 보령 머드 속에 빠지고 뒹굴며 머드를 체험하자,(재)보령축제관광재단,보령시,한국중부발전,041-930-0891,www.mudfestival.or.kr,,충청남도 보령시 머드로 123,,36.3155199,126.5108563,2019-09-26,6440000,충청남도
무창포신비의바닷길축제,무창포해수욕장 일원,2019-08-30,2019-09-01,신비한 자연현상인 바닷길에서 잊지못할 전통 어업 방식 체험,무창포신비의바닷길축제추진위원회,보령시,,041-930-6561,www.muchangpo.or.kr,,충청남도 보령시 웅천읍 열린바다1길 35,,36.2424253,126.5350884,2019-09-26,6440000,충청남도
아산성웅이순신축제,온양온천역,2019-04-24,2019-04-28,"가요베스트,지역예술인 공연다례제 및 마라톤대회불꽃놀이",(재)아산문화재단,아산시,아산시,041-534-2140,culture.asan.go.kr,,충청남도 아산시 온천대로 1496,충청남도 아산시 온천동 56-9,,,2019-09-26,6440000,충청남도
해미벚꽃축제,해미면 해미천,2019-04-03,2019-04-14,"벚꽃음악회, 농특산물 홍보 및 판매장 운영, 각종 전시 및 체험행사 등",해미벚꽃축제추진위원원,충청남도 서산시,충청남도 서산시,041-660-3844,http://www.seosan.go.kr/tour,해미천 벚꽃,충청남도 서산시 해미면 남문2로 143,,36.71355717,126.5503842,2019-09-26,6440000,충청남도
지곡왕산포서산갯마을축제,서산시 지곡면 중왕리 왕산 포구,2019-06-08,2019-06-09,"바지락 빨리까지, 바지락 무게맞추기,  노래자랑, 바지락캐기(유료), 맨손으로 물고기잡기, 무궁화예술단공연, 농특산물홍보판매 등",지곡왕산포서산갯마을축제추진위원회,충청남도 서산시,충청남도 서산시,041-660-2069,http://www.seosan.go.kr/tour,"안견기념관, 팔봉산, 황금산, 삼길포항",충청남도 서산시 지곡면 어름들2길 66,충청남도 서산시 지곡면 중왕리 196,36.88040156,126.3845472,2019-09-26,6440000,충청남도
류방택 별 축제,천문기상과학관,2019-05-18,2019-05-18,"굴절망원경 만들기, 소유주 로켓 만들기, 천체관측과 기상기기 체험 등",사)금헌류방택기념사업회,충청남도 서산시,한국천문연구원 등,041-661-8009,http://www.ryubangtaek.org,서산 류방택 천문기상과학관,충청남도 서산시 문화로 54,충청남도 서산시 읍내동 510,36.7861429,126.4486172,2019-09-26,6440000,충청남도
팔봉산감자축제,팔봉면 양길리 주차장 일원,2019-06-22,2019-06-23,"감자캐기체험, 농특산물 직거래, 무대공연 등",팔봉산감자축제추진위원회,충청남도 서산시,충청남도 서산시,041-660-2435,http://www.potatofestival.co.kr/,"팔봉산, 고파도, 감태, 낚지",충청남도 서산시 팔봉면 팔봉산로 100,충청남도 서산시 팔봉면 양길리 812-3,36.81761837,126.3662446,2019-09-26,6440000,충청남도
서산6쪽마늘축제,서산시 해미면 해미읍성,2019-07-01,2019-07-01,"6쪽마늘 판매, 공연, 체험 등",서산6쪽마늘축제추진위원회,충청남도 서산시,충청남도 서산시,041-660-2435,http://www.seosan.go.kr/tour,"6쪽마늘, 해미읍성",충청남도 서산시 해미면 남문2로 143,,36.71355717,126.5503842,2019-09-26,6440000,충청남도
삼길포우럭축제,서산시 대산읍 삼길포항,2019-07-26,2019-07-28,"공식행사, 축하공연, 독살체험, 수산물 시식회,에어바운스 물고기 잡기, 수산물 전시 및 판매, 노래자랑 및 장기자랑 등",삼길포축제위원회,충청남도 서산시,충청남도 서산시,041-660-2069,http://www.samgilpo.com,"황금산, 벌천포해수욕장, 웅도갯벌체험",충청남도 서산시 대산읍 삼길포3길 8,충청남도 서산시 대산읍 화곡리 7-23,37.0010156,126.4515766,2019-09-26,6440000,충청남도
서산뻘낙지먹물축제,서산시 지곡면 중왕리 포구,2019-09-01,2019-09-01,"공식행사, 먹물 퍼포먼스, 수산물 시식, 수산물 전시 및 판매, 바지락캐기,  먹물글씨쓰기, 낙지잡기 등",서산갯마을뻘낙지축제위원회,충청남도 서산시,충청남도 서산시,041-660-2069,http://www.seosan.go.kr/tour,"안견기념관, 팔봉산, 황금산, 삼길포항",충청남도 서산시 지곡면 어름들2길 66,충청남도 서산시 지곡면 중왕리 196,36.88040156,126.3845472,2019-09-26,6440000,충청남도
서산어리굴젓축제,서산시 부석면 간월도리 일원,2019-10-01,2019-10-01,"공식행사, 각종체험(바지락캐기, 어선체험, 굴까기 체험 및 밑반찬용 굴 무치기 등), 부대행사, 전시행사 등",간월도어리굴젓수산물한마당추진위원회,충청남도 서산시,충청남도 서산시,041-660-2069,http://www.seosan.go.kr/tour,"버드랜드,간월암,부석사",충청남도 서산시 부석면 간월도1길119-29,충청남도 서산시 부석면 간월도리 16-11,36.60375494,126.4110016,2019-09-26,6440000,충청남도
서산해미읍성축제,서산시 해미면 해미읍성,2019-10-11,2019-10-13,"주제체험(세계의 민속놀이 해미읍성에서 놀아보자), 기획프로그램, 전통문화공연, 상설프로그램 및 체험프로그램, 연계프로그램 등",서산해미읍성축제추진위원회,충청남도 서산시,문화체육관광부,041-660-2679,http://www.haemifest.com/,"해미읍성, 해미성지, 가야산 등",충청남도 서산시 해미면 남문2로 143,,36.71355717,126.5503842,2019-09-26,6440000,충청남도
서산국화축제,서산시 고북면 가구리 한농원,2019-11-01,2019-11-10,"야외전시장 조성, 작품국전시, 문화예술공연, 체험행사, 농특산물 홍보 판매 등",서산국화축제추진위원회,충청남도 서산시,서산시의회,041-660-3935,http://gukhwaou.blog.me/,"국화꽃, 사과, 국화꽃 체험",충청남도 서산시 고북면 복남골길 31-1,충청남도 서산시 고북면 가구리 621-4,36.6693265,126.536271,2019-09-26,6440000,충청남도
논산딸기축제,논산시 대교하상주차장,2019-03-20,2019-03-24,논산딸기 우수성 홍보,논산딸기축제추진위원회,충청남도 논산시,논산문화원등,041-746-8386,http://www.nonsan.go.kr/nsfestival,,충청남도 논산시 강변로 370,충청남도 논산시 대교동 319,36.20922889,127.0819869,2019-09-26,6440000,충청남도
강경젓갈축제,강경둔치 일원,2019-10-16,2019-10-20,강경젓갈 우수성 홍보,강경젓갈축제추진위원회,충청남도 논산시,문화체육관광부,041-746-5663,http://www.nonsan.go.kr/ggfestival/,,충청남도 논산시 강경읍 금백로 45,충청남도 논산시 강경읍 황산리 198,36.15755616,127.0098062,2019-09-26,6440000,충청남도
양촌곶감축제,충청남도 논산시 양촌면 양촌리 454번지 체육공원,2019-12-14,2019-12-15,곶감축제,양촌곶감축제추진위원회,충청남도 논산시,,041-746-8795,http://www.nonsan.go.kr/tour/html/sub03/03010703.html,,,충청남도 논산시 양촌면 양촌리 454,36.1292062,127.2474063,2019-09-26,6440000,충청남도
2019계룡세계軍문화축제,계룡대활주로,2019-10-02,2019-10-06,"軍문화 관련 공연, 전시, 체험, 이벤트 등",(재)계룡軍문화발전재단,계룡시,"국방부, 육군본부 등",042-840-2631,www.m-festival.org,,충청남도 계룡시 신도안면 계룡대로 663,,,,2019-09-26,6440000,충청남도
왜목해돋이축제,왜목마을 일대,2019-12-31,2020-01-01,"소원지 태우기, 일출 감상, 떡국 나눔행사 등",충청남도 당진시,충청남도 당진시 문화관광과,"충청남도, 충청남도 당진시",041-350-3592,http://tour.dangjin.go.kr,"왜목해수욕장, 난지도해수욕장, 보덕사, 성산리산성, 기지시줄다리기",충청남도 당진시 시청1로 1,충청남도 당진시 석문면 교로리 844-4,36.88973998,126.6459689,2019-09-26,6440000,충청남도
기지시줄다리기 민속축제,기지시줄다리기 박물관 일원,2019-04-11,2019-04-14,"국수봉당제, 시장기원제, 그네뛰기 등 민속놀이, 스포츠 줄다리기, 줄고사, 줄나가기, 줄다리기 등","충청남도 당진시, 기지시줄다리기 축제위원회",기지시줄다리기 축제위원회,"충청남도, 충청남도 당진시, 기지시줄다리기 보존회 등",041-355-8118,http://www.gijisi.com,"기지시시장, 송악읍, 필경사, 흥척동 우물, 기지시 틀못, 솔뫼성지, 심훈기념관",충청남도 당진시 송악읍 안틀모시길 11,,36.89616138,126.694732,2019-09-26,6440000,충청남도
장고항 실치축제,장고항 일대,2019-04-27,2019-04-28,"맨손고기잡이, 수산물경매, 실치로 뱅어포 만들기, 사물놀이, 노래자랑 등",당진수산업협동조합,장고항실치축제위원회,"충청남도 당진시, 수협중앙회, 한국동서발전, 석문면, 석문면개발위원회 등",041-350-4271,http://tour.dangjin.go.kr,"왜목해수욕장, 난지도해수욕장, 보덕사, 성산리산성, 기지시줄다리기",충청남도 당진시 석문면 장고항로 298-5,충청남도 당진시 석문면 장고항리 577,37.0288688,126.5619088,2019-09-26,6440000,충청남도
한진포구 바지락 갯벌체험축제,한진포구 일대,2019-05-25,2019-05-27,"바지락캐기, 바다낚시체험, 경품행사, 바지락요리시식회, 불꽃놀이",한진 바지락 축제위원회,"해양수산부, 충청남도, 당진시","현대제철, 동부제철, 평택화력 등",041-356-6098,http://tour.dangjin.go.kr,"한진포구, 필경사, 심훈기념관, 영웅바위, 안섬포구, 안섬풍어제",충청남도 당진시 송악읍 한진포구길 50-1,충청남도 당진시 송악읍 한진리 95-17,36.97041875,126.7815875,2019-09-26,6440000,충청남도
면천 진달래축제,면천읍성 앞 광장 및 면천일원,2019-04-06,2019-04-07,"진달래 사생대회 및 백일장, 진달래 어린이 장사 씨름대회, 진달래 청소년 가요제, 진달래 음식체험 등",향토발전진달래,면천진달래민속축제 집행위원회,"충청남도 당진시, 당진시교육지원청, 면천면, 면천두견주보존회 등",041-356-3848,http://www.jindalae.co.kr,"면천읍성, 면천두견주, 영탑사, 성상리산성, 면천은행나무, 면천향교",충청남도 당진시 면천면 면천서문1길 69,충청남도 당진시 면천면 성상리 771-2,36.81761891,126.666993,2019-09-26,6440000,충청남도
심훈상록문화제,당진시청 일원,2019-09-20,2019-09-22,"심훈문학상 수상, 심훈상록수연극공연, 심훈청소년국악제 등",심훈상록문화제 집행위원회,(사)심훈상록문화제집행위원회,"충청남도 당진시, 당진시의회, 충청남도당진교육지원청, 홍성보훈지청 등",041-357-4151,http://www.djsangnok.org,"당진시청, 필경사, 심훈기념관, 한진포구, 행담도, 기지시줄다리기 등",충청남도 당진시 시청1로 1(수청동),충청남도 당진시 수청동 1002,36.889754,126.6459689,2019-09-26,6440000,충청남도
금산인삼축제,금산인삼관 광장 및 인삼약초시장 일원,2019-09-27,2019-10-06,"인삼캐기체험, 건강체험관, 어린이힐링놀이터,인삼아트거리 등 체험",금산축제관광재단,금산군,"산업통상자원부, 한국관광공사",041-750-2411,http://www.insamfestival.co.kr/,,충청남도 금산군 금산읍 인삼광장로 30,충청남도 금산군 금산읍 신대리 392,36.1000256,127.5007304,2019-09-26,6440000,충청남도
비단고을산꽃축제,군북면 산꽃벚꽃마을 오토캠핑장,2019-04-13,2019-04-14,"산꽃 술래길 건강걷기, 숲속 작은 음악회, 산꽃음악회 등 공연프로그램 등",보곡산골마을회,금산문화원,금산군,041-750-2411,http://tour.geumsan.go.kr/,,충청남도 금산군 군북면 자진뱅이길 95,충청남도 금산군 군북면 산안리 294,36.19093401,127.5710874,2019-09-26,6440000,충청남도
금강여울축제,부리면 금강놀이마당,2019-07-12,2019-07-13,"강변슬라이딩, 금강족욕, 민물고기잡기, 경운기투어, 여치집만들기, 농바우끄시기, 물페기농요 등 민속공연","물페기농요보존회, 농바우끄시기보존회",금산문화원,금산군,041-750-2411,http://tour.geumsan.go.kr/,,충청남도 금산군 부리면 적벽강로 189,충청남도 금산군 부리면 평촌리 10-5,36.0751568,127.5683215,2019-09-26,6440000,충청남도
금산천봄꽃축제,금산읍 금산천 일원,2019-04-06,2019-04-06,"봄꽃노래자랑, 소원꽃잎적기, 주민자치센터공연, 봄꽃카페 등",금산천봄꽃축제추진위원회,금산천봄꽃축제추진위원회,금산군,041-750-8103,https://www.geumsan.go.kr/town_01/,,충청남도 금산군 금산읍 금산천길 28,충청남도 금산군 금산읍 상옥리 467-160,36.1020211,127.4843123,2019-09-26,6440000,충청남도
부여서동연꽃축제,서동공원,2019-07-05,2019-07-28,"연꽃과 서동선화의 사랑이야기를 담은 각종 전시, 공연, 체험 등",부여서동연꽃축제추진위원회,부여군,"문화체육관광부,충청남도,한국관광공사,한국지역진흥재단,맥키스컴퍼니,롯데리조트부여,농협중앙회부여군지부,정관장",041-830-2211,www.부여서동연꽃축제.kr,,충청남도 부여군 부여읍 궁남로 52,충청남도 부여군 부여읍 동남리 117,36.27145891,126.9136908,2019-09-26,6440000,충청남도
백제문화제,부여 구드래 일원,2019-09-28,2019-10-06,사비 백제 역사를 담은 문화제,(재)백제문화제추진위원회,"충청남도,공주시,부여군","문화체육관광부,한국관광공사",041-830-2211,http://www.baekje.org/html/kr/,,충청남도 부여군 부여읍 구교리 17-4,충청남도 부여군 부여읍 구교리 17-4,36.28714312,126.9067822,2019-09-26,6440000,충청남도
춘장대해수욕장 여름문화예술축제,춘장대해수욕장 중앙광장,2019-07-20,2019-07-21,전국 가요제,춘장대해수욕장 운영협의회,춘장대해수욕장 운영협의회,충청남도 서천군청,041-950-4019,http://tour.seocheon.go.kr,"축제 일정, 프로그램",충청남도 서천군 서면 춘장대길 20,충청남도 서천군 서면 도둔리 1319,36.16334922,126.5243355,2019-09-26,6440000,충청남도
자연산 광어.도미 축제,서면 마량포구 일원,2019-05-11,2019-05-26,"맨손으로 광어잡기 체험, 기념공원에서 보물찾기",서면개발위원회,서면개발위원회,충청남도 서천군청,041-950-4256,http://tour.seocheon.go.kr,"축제 일정, 프로그램",충청남도 서천군 서면 서인로 56,충청남도 서천군 서면 마량리 339-6,36.1293642,126.5036472,2019-09-26,6440000,충청남도
동백꽃 주꾸미 축제,서면 마량리 동백나무숲 일원,2019-03-16,2019-03-31,"어린이 주꾸미 낚시 체험, 동백나무숲 보물찾기 이벤트",서면개발위원회,서면개발위원회,충청남도 서천군청,041-950-4256,http://tour.seocheon.go.kr,"축제 일정, 프로그램",충청남도 서천군 서면 서인로235번길 22,충청남도 서천군 서면 마량리 313-2,36.14324982,126.4963639,2019-09-26,6440000,충청남도
마량포 해넘이.해돋이 축제,서면 마량포구 일원,2019-12-31,2020-01-01,"덕담엽서 보내기, 새해 떡국나눔행사, 불꽃놀이, 신년 카운트다운 등",서면개발위원회,서면개발위원회,충청남도 서천군청,041-950-4019,http://tour.seocheon.go.kr,"축제 일정, 프로그램",충청남도 서천군 서면 서인로 56,충청남도 서천군 서면 마량리 339-6,36.1293642,126.5036472,2019-09-26,6440000,충청남도
홍원항 자연산 전어.꽃게 축제,서면 홍원항 일원,2019-09-07,2019-09-22,"맨손으로 전어 잡기 체험, 추억의 놀이 체험, 숨셔진 보물을 찾아라, 비눗방울 놀이 등",홍원항마을축제추진위원회,홍원항마을축제추진위원회,충청남도 서천군청,041-950-4256,http://tour.seocheon.go.kr,"축제 일정, 프로그램",충청남도 서천군 서면 홍원길 130-3,충청남도 서천군 서면 도둔리 1222-7,36.15886,126.4992204,2019-09-26,6440000,충청남도
한산모시문화제,한산모시관 일원,2019-06-07,2019-06-10,한산모시를 주제로 하는 다양한 프로그램 운영,한산모시문화제추진위원회,서천군,"문화체육관광부, 충청남도, 농협 등",041-950-4016,www.hansanmosi.kr/,"축제 일정, 프로그램",충청남도 서천군 한산면 충절로 1089,충청남도 서천군 한산면 지현리 60-1,36.07994424,126.7987047,2019-09-26,6440000,충청남도
장승문화축제,장승공원일원,2019-04-13,2019-04-14,"장승대제, 장승깍기등 장승   관련행사",장승축제추진위원회,장승축제추진위원회,충청남도 청양군,041-943-4774,http://korean.visitkorea.or.kr/kor/bz15/where/festival/festival.jsp?cid=293475,"칠갑산, 장곡사",충청남도 청양군 대치면 장곡길 119-19,충청남도 청양군 대치면 장곡리 67-15,36.40991529,126.8503994,2019-09-26,6440000,충청남도
청양고추.구기자축제,백세공원일원,2019-09-27,2019-09-28,"고추판매 및 체험프로그램, 공연 등",청양고추구기자축제추진위원회,청양고추구기자축제추진위원회,충청남도 청양군,041-940-2302,http://www.cheongyang.go.kr/kor.do,"백세공원,청양고추시장, 청양시장",,충청남도 청양군 청양읍 읍내리 404-1,,,2019-09-26,6440000,충청남도
홍성역사인물축제,홍주읍성,2019-09-27,2019-09-28,"역사현장타임머신체험, 홍주읍성 히어로 파사드, 훈민정음 해례본체험, 홍주읍성 기억 사진관 등",홍성역사인물축제추진위원회,홍성군,"문화체육관광부, 한국관광공사, 충청남도",041-630-1227,herofestival.co.kr,,충청남도 홍성군 홍성읍 아문길 27,,36.6017196,126.6613896,2019-09-26,6440000,충청남도
홍성남당항대하축제,남당항 일원,2019-02-01,2019-02-17,대하 특산물 홍보 및 판매,남당항축제추진위원회,남당항축제추진위원회,홍성군,041-630-1227,,"남당항, 속동전망대",충청남도 홍성군 서부면 남당항로213번길 25-62,충청남도 홍성군 서부면 남당리 863,36.53503195,126.467178,2019-09-26,6440000,충청남도
홍성남당항새조개축제,남당항 일원,2019-04-27,2019-04-29,새조개 특산물,남당항축제추진위원회,남당항축제추진위원회,홍성군,041-630-1227,,"남당항, 속동전망대",충청남도 홍성군 서부면 남당항로213번길 25-62,충청남도 홍성군 서부면 남당리 863,,,2019-09-26,6440000,충청남도
윤봉길평화축제,충의사 일원,2019-04-27,2019-04-29,윤봉길 의사의 4.29 의거를 기념하는 독립운동가축제,윤봉길평화축제추진위원회,(사)매헌윤봉길월진회,예산군 등,041-339-7312,www.ybgfestival.kr,,충청남도 예산군 덕산면 덕산온천로 183-5,충청남도 예산군 덕산면 시량리 119-1,36.6865377,126.6513825,2019-09-26,6440000,충청남도
의좋은형제축제,의좋은형제공원,2019-10-18,2019-10-24,의좋은형제 이야기를 소재로 한 체험형 관광축제,의좋은형제축제추진위원회,대흥현보존회,없음,041-339-7312,없음,,충청남도 예산군 대흥면 의좋은형제길 37,충청남도 예산군 대흥면 동서리 106-1,36.60702389,126.7888311,2019-09-26,6440000,충청남도
태안국제모래조각 페스티벌,신두리 사구센터,2019-07-11,2019-07-14,모래조각 경연대회 등,국제모래조각 페스티벌 추진위원회,국제모래조각 페스티벌 추진위원회,,,,,충청남도 태안군 원북면 신두해변길 22-5,,,,2019-09-26,6440000,충청남도
태안 몽산포항 주꾸미&수산물 축제,몽산포항,2019-04-20,2019-05-06,"주꾸미시식, 물고기잡기 등",몽산포항 주꾸미&수산물 축제위원회,몽산포항 주꾸미&수산물 축제위원회,,,,,충청남도 태안군 남면 몽대로 495-38,,,,2019-09-26,6440000,충청남도
태안 세계툴립축제,꽃지해수욕장 해안공원,2019-04-13,2019-05-12,튤립,(주)네이처농업회사법인,(주)네이처농업회사법인,,,,,충청남도 태안군 안면읍 꽃지해안로 400,,,,2019-09-26,6440000,충청남도
제46회 강진청자축제,청자촌 일원,2019-10-03,2019-10-09,가을축제에 따른 다이내믹하고 흥이 넘치는 청자촌 분위기 조성과 향우와 구민이 함께 어우러지는 문화체육관광부 선정 우수축제,강진군향토축제추진위원회,강진군,"문화체육관광부, 전라남도, 한국관광공사, 하이트진로㈜, ㈜일화, 농협중앙회, 광주은행",061-430-3352,http://www.gangjin.go.kr/culture/,,전라남도 강진군 대구면 청자촌길 33,전라남도 강진군 대구면 사당리 127,34.50866041,126.8008375,2019-12-02,4920000,전라남도 강진군
제18회 전라병영성 축제,전라병영성 일원,2019-04-19,2019-04-21,2019년 올해의 관광도시 방문 관광객과 군민이 함께 즐기며 대한민국 호국정신 성지로 이어가는 역사교육 도시로의 재탄생 도약 축제,강진군향토축제추진위원회,강진군,전라남도,061-430-3354,http://www.gangjin.go.kr/culture/,,전라남도 강진군 병영면 병영성로 175,전라남도 강진군 병영면 병영성로 175,34.72004452,126.8171446,2019-12-02,4920000,전라남도 강진군
제16회 영랑문학제,영랑생가 일원,2019-04-26,2019-04-27,영랑생가와 주변 경관을 무대로 영랑시인의 시 세계를 조명하고 인문학적 감성축제 개발로 관광객과 함께하는 축제,강진군 / (사)영랑기념사업회,강진군,"문화체육관광부, 전라남도, 전라남도교육청, 강진교육지원청",061-430-3372,http://www.gangjin.go.kr/culture/,,전라남도 강진군 강진읍 영랑생가길 15,전라남도 강진군 강진읍 남성리 211-1,34.6420738,126.765573,2019-12-02,4920000,전라남도 강진군
제3회 강진만 춤추는 갈대축제,강진만 생태공원 일원,2019-10-26,2019-11-03,가을의 정취와 추억을 체험하는 ''''남도답사 1번지'''' 이미지 창출과 갈대·음악·자연을 대표하는 명품 축제,강진군 향토축제추진위원회,강진군,,061-430-3354,http://www.gangjin.go.kr/culture/,,전라남도 강진군 강진읍 남당로 97,전라남도 강진군 강진읍 목리 128-1,34.6259705,126.7724317,2019-12-02,4920000,전라남도 강진군
제25회 남도음식문화큰잔치,강진만 생태공원 일원,2019-10-11,2019-10-13,"남도음식의 보존·발전과 산업화, 세계화를 위한 체험과 참여가 어우러진 대표음식 브랜드 발굴육성 축제",(재)남도음식문화큰잔치,전라남도/강진군,"문화체육관광부, 농림축산식품부, 식품의약품안전처, 한국관광공사",061-430-3354,http://www.gangjin.go.kr/culture/,,전라남도 강진군 강진읍 남당로 97,전라남도 강진군 강진읍 목리 128-1,34.6259705,126.7724317,2019-12-02,4920000,전라남도 강진군
2019 금정산성축제,"온천천(장전역 ~ 부산대지하철역), 금정산성다목적광장 일원",2019-05-24,2019-05-26,"개막식, 공연·체험 프로그램, 부대행사 등",금정문화재단,부산광역시 금정구,,051-519-4062,http://festival.geumjeong.go.kr,"금정산성, 금정산성막걸리, 금어전통체험 등",,부산광역시 금정구 금성동 산41-13,35.2453467,129.0635718,2019-11-01,3350000,부산광역시 금정구
제4회 라라라 페스티벌,부산대 지하철역 아래 문화행사장 일원 (온천천 어울마당),2019-10-04,2019-10-06,"금정 커피,빵,문화의 맛 즐기기 및 공연 등 문화공간 제공",부산광역시 금정구,부산광역시 금정구,,051-519-4422,,"금정의 커피 및 빵 즐기기, 초콜릿 만들기, 라라라 놀이체육 한마당, 금정 맛 푸드 콘서트 등",,부산광역시 금정구 장전동 부산대 지하철역 아래 문화행사장 일원,35.230188,129.089184,2019-11-01,3350000,부산광역시 금정구
청송사과축제,청송읍 용전천 변,2019-10-30,2019-11-03,공연/경연/체험/전시/판매,청송군축제추진위원회,청송군,"경상북도, 청송군의회, 청송경찰서, 청송교육지원청, 청송군관내농협, (사)청송사과협회, 청송사과유통공사, (재)청송문화관광재단",054-870-6237,,,,경상북도 청송군 청송읍 월막리 368-2,36.432499,129.054312,2019-12-10,5160000,경상북도 청송군
봉황각 3.1독립운동 재현행사,서울특별시 강북구 우이동 봉황각 일원,2019-03-01,2019-03-01,도선사 타종  독립선언문 낭독  길놀이 및 태극기 거리행진,서울특별시 강북구청,서울특별시 강북구청,강북문화발전협의회  천도교 중앙총부  티브로드,02-901-6207,www.gangbuk.go.kr,,서울특별시 강북구 삼양로173길 107-12,서울특별시 강북구 우이동 254,37.66053059,127.0064736,2019-11-18,3080000,서울특별시 강북구
4.19혁명 국민문화제 2019,서울특별시 강북구 국립4.19 민주묘지 및 강북구 일원,2019-04-13,2019-04-19,4.19기념 국민문화제,4.19혁명 국민문화제위원회,4.19 3개단체 및 서울특별시 강북구청,국가보훈처 서울특별시  서울특별시 교육청  KBS,02-901-6206,www.festival419.org,,서울특별시 강북구 도봉로89길 13,서울특별시 강북구 수유동 192-59,37.63918553,127.0254518,2019-11-18,3080000,서울특별시 강북구
종교연합바자회,서울특별시 강북구 한신대신학대학원,2019-10-12,2019-10-12,종교연합 바자회 기증물품 판매  문화공연  수익금전액 난치병어린이돕기 후원,서울특별시 강북구 관내 3종교연합,서울특별시 강북구 관내 3종교연합,강북구  티브로드  한신대학교 신학대학원,02-901-6207,www.gangbuk.go.kr,,서울특별시 강북구 인수봉로 159,서울특별시 강북구 수유동 498-16,37.6350142,127.0129382,2019-11-18,3080000,서울특별시 강북구
해맞이축제,영덕삼사해상공원,2018-12-31,2019-01-01,경북대종타종식 및 영덕해맞이축제,영덕군관광진흥협의회,경상북도청/경상북도 영덕군청,,054-730-6393,www.yd.go.kr,삼사해상산책로,경상북도 영덕군 강구면 해상공원길 120-11,경상북도 영덕군 강구면 삼사리 8-2,36.35194321,129.3848496,2019-09-16,5180000,경상북도 영덕군
영덕대게축제,경상북도 영덕군 강구항 일원,2018-03-22,2018-03-25,영덕대게 홍보 및 체험축제,영덕대게축제추진위원회,경상북도 영덕군청/영덕대게축제추진위원회,"문화체육관광부, 경상북도",054-730-6393,ydcrabfestival.com,해파랑공원,경상북도 영덕군 강구면 영덕대게로 132,경상북도 영덕군 강구면 강구리 581,36.36081011,129.3926424,2019-09-16,5180000,경상북도 영덕군
영덕황금은어축제,오십천 둔치 일원,2018-07-27,2018-07-29,황금은어 홍보 및 체험 축제,경상북도청/경상북도 영덕군청,경상북도청/경상북도 영덕군청,영덕경찰서 등 유관기관,054-730-6586,www.yd.go.kr,오십천,경상북도 영덕군 영덕읍 화개리 644,경상북도 영덕군 영덕읍 화개리 644,36.422248,129.356322,2019-09-16,5180000,경상북도 영덕군
영덕물가자미축제,축산항 일원,2018-05-04,2018-05-06,물가자미 홍보 및 체험 축제,경상북도청/경상북도 영덕군청,경상북도청/경상북도 영덕군청,영덕경찰서 등 유관기관,054-730-6092,www.yd.go.kr,축산항,경상북도 영덕군 축산면 축산리 216-3,경상북도 영덕군 축산면 축산리 216-3,36.509106,129.446771,2019-09-16,5180000,경상북도 영덕군
제3회 우포시조문학제,우포시조문학관,2019-09-07,2019-09-08,"시화전, 시조낭송, 전국 시조 사이버 공모, 학술세미나 등",우포시조문학관,우포시조문학관,,055-532-8989,,,경상남도 창녕군 이방면 목포길 99,,35.56378606,128.4104033,2019-12-06,5410000,경상남도 창녕군
제58회 3·1민속문화제,영산면 일원(주행사장:무형문화재 놀이마당),2019-02-28,2019-03-03,국가무형문화재 제25호 영산쇠머리대기 및 제26호 영산줄다리기 공개행사 등,동.서부 추진본부 및 각 주관부서,(사)3.1민속문화향상회,,055-536-0031,,,경상남도 창녕군 영산면 원다리길 15-1,,35.45092332,128.5289404,2019-12-06,5410000,경상남도 창녕군
제33회 비사벌문화제,창녕읍 일원,2019-10-11,2019-10-13,"향토기양제, 비사벌문화행렬, 미술실기대회, 보부상존 운영, 각종 전시행사 등",비사벌문화제전회,비사벌문화제전회,,055-532-0993,,,경상남도 창녕군 창녕읍 학천길 13,,35.53835896,128.4987294,2019-12-06,5410000,경상남도 창녕군
가야문화축제,대성동 고분군 일원,2019-04-18,2019-04-21,"공식, 민속, 축제, 체험, 설치, 부대, 연계행사",(사)가야문화축제제전위원회,김해시,없음,055-330-3958,www.gcfkorea.com,"김해국립박물관, 김수로왕릉, 가야의 길, 가야테마파크 등",경상남도 김해시 가야의길 126,경상남도 김해시 대성동 434,35.23606039,128.8730826,2019-09-11,5350000,경상남도 김해시
김해분청도자기축제,진례면 분청도자관 일원,2019-10-25,2019-11-03,"의식,전시,체험,공연,학술,대회,부대행사",(사)김해도예협회,김해시,없음,055-330-3244,www.festival.buncheong.net,"김해분청도자관,클레이아크미술관 등",경상남도 김해시 진례로 275-35,,35.25149561,128.745857,2019-09-11,5350000,경상남도 김해시
김해독서대전,봉황대공원 일원,2019-10-12,2019-10-13,"강현,체험,학술토론,북페어",김해시,김해시,없음,055-330-6681,https://lib.gimhae.go.kr/00038/00039.web,"봉황대공원, 국립김해박물관, 김해도서관, 김해문화원",경상남도 김해시 가야의길 190,경상남도 김해시 구산동 232,35.2435463,128.872594,2019-09-11,5350000,경상남도 김해시
서대문독립민주축제,서대문형무소역사관,2019-08-14,2019-08-15,"풋프린팅,역사콘서트,체험프로그램 등",서울특별시 서대문독립민주축제추진위원회,서울특별시 서대문구,서울특별시,02-330-1410,https://blog.naver.com/sidfest,,서울특별시 서대문구 통일로 251,서울특별시 서대문구 현저동 101,37.574374,126.956064,2019-07-18,3120000,서울특별시 서대문구
크리스마스거리축제,연세로,2019-12-22,2019-12-25,"경관조명,거리공연,체험부스",서울특별시 서대문구,서울특별시 서대문구,서울특별시,02-330-1410,http://blog.naver.com/xmasfest,,서울특별시 서대문구 연세로,서울특별시 서대문구 창천동 연세로,37.557225,126.936889,2019-07-18,3120000,서울특별시 서대문구
제8회 낙동강 구포나루 축제,화명생태공원 선착장 일원,2019-05-17,2019-05-19,감동 민속촌/밀사리체험/바비큐체험/구포국수체험 등,(사)부산북구문화관광축제조직위원회,(사)부산북구문화관광축제조직위원회,"부산광역시 북구, 부산광역시",051-309-4065,http://www.guponarufes.co.kr,낙동민속예술제,부산광역시 북구 낙동대로1570번길 33(구포동),부산광역시 북구 구포동 1124-1,35.19688402,128.9900968,2019-12-26,3320000,부산광역시 북구
부산 2019 장애인미디어축제 ''배프 in BIFF'',부산 센텀시티 내 배리어프리존 일대,2019-10-03,2019-10-12,"배리어프리 극장(영화/연극/뮤지컬), 콘서트(음악, 미디어아트, 드림페스티벌), 거리축제(각종 체험부스)",센텀시티배리어프리존 운영위원회,부산국제영화제,,051-749-9510,http://kcmf.or.kr/comc/busan/,,부산광역시 해운대구 센텀중앙로 42,,35.17259614,129.130314,2019-11-04,B553505,시청자미디어재단
부산 2019 합천청소년 미디어영상캠프,경남 합천청소년수련관 일대,2019-07-25,2019-07-27,영상에 관심있는 경남 중고등학생 30여명이 함께 2박3일간 영상을 제작하는 집중교육,"시청자미디어재단 부산시청자미디어센터, 마산청소년문화의집","마산청소년문화의집, CJ헬로하나방송",,051-749-9522,http://kcmf.or.kr/comc/busan/,,부산광역시 해운대구 센텀중앙로 42,,35.17259614,129.130314,2019-11-04,B553505,시청자미디어재단
2019 산해진미프로젝트_사량도 청소년 여름방학캠프,"사량초등학교, 사량중학교",2019-08-20,2019-08-21,사량초중학교 청소년대상 여름방학 영상제작 집중 캠프,시청자미디어재단 부산시청자미디어센터,시청자미디어재단 부산시청자미디어센터,,051-749-9522,http://kcmf.or.kr/comc/busan/,,부산광역시 해운대구 센텀중앙로 42,,35.17259614,129.130314,2019-11-04,B553505,시청자미디어재단
2019 산해진미프로젝트_우도 청소년 여름방학캠프,우도중학교,2019-12-16,2019-12-17,우도중학교 청소년대상 겨울방학 영상제작 집중 캠프,시청자미디어재단 부산시청자미디어센터,시청자미디어재단 부산시청자미디어센터,,051-749-9522,http://kcmf.or.kr/comc/busan/,,부산광역시 해운대구 센텀중앙로 42,,35.17259614,129.130314,2019-11-04,B553505,시청자미디어재단
2019 중학생 책가방 영상제(예정),부산시청자미디어센터,2019-12-01,2019-12-31,부산지역 중학생 대상 미디어교육 참여학교 수료작 및 청소년기자단 영상 상영 및 공연,시청자미디어재단 부산시청자미디어센터,시청자미디어재단 부산시청자미디어센터,,051-749-9522,http://kcmf.or.kr/comc/busan/,,부산광역시 해운대구 센텀중앙로 42,,35.17259614,129.130314,2019-11-04,B553505,시청자미디어재단
제24회 부산국제영화제 커뮤니티 비프,부산 중구 및 해운대구 일대,2019-10-04,2019-10-10,동형 방송스튜디오(미디어나눔버스)를 활용한 FM라디오 방송 진행,시청자미디어재단 부산시청자미디어센터,부산국제영화제,,051-749-9522,http://kcmf.or.kr/comc/busan/,,부산광역시 해운대구 센텀중앙로 42,,35.17259614,129.130314,2019-11-04,B553505,시청자미디어재단
2019 마을미디어축제 (예정),부산시청자미디어센터,2019-12-01,2019-12-31,부산·경남·제주지역 마을미디어 활동가 및 강사가 함께하는 교류 행사,시청자미디어재단 부산시청자미디어센터,시청자미디어재단 부산시청자미디어센터,,051-749-9522,http://kcmf.or.kr/comc/busan/,,부산광역시 해운대구 센텀중앙로 42,,35.17259614,129.130314,2019-11-04,B553505,시청자미디어재단
2019 드론 체험 한마당,광주시청자미디어센터 일원,2019-05-02,2019-05-03,"누구나 쉽게 즐길 수 있는 드론을 주제로한 체험, 교육 프로그램을 통해 4차 산업혁명 시대 핵심 산업인 드론 분야의 이해도와 관심 제고",시청자미디어재단 광주시청자미디어센터,시청자미디어재단 광주시청자미디어센터,한국모형항공협회 광주광역시지부,062-650-0333,https://kcmf.or.kr/comc/gwangju/,,광주광역시 서구 회재로 905,,35.12381317,126.8623375,2019-11-04,B553505,시청자미디어재단
청년농부 미디어 크리에이터 경연대회,광주시청자미디어센터,2019-06-27,2019-06-27,농업인 미디어 향유권 확대 및 농식품 라이브 방송 활성화를 위해 농업 주제의 라이브 방송 생중계 경연,시청자미디어재단 광주시청자미디어센터,전라남도농업기술원,,062-650-0336,https://kcmf.or.kr/comc/gwangju/,,광주광역시 서구 회재로 905,,35.12381317,126.8623375,2019-11-04,B553505,시청자미디어재단
2019 청소년미디어캠프,영광 홍농중학교,2019-07-25,2019-07-26,"군소지역 청소년의 미디어 역량 강화와 창의력 향상, 방송 참여 지원을 위한 미디어교육 프로그램 운영(미디어 역량강화 교육, 영상 제작 활동, 뉴미디어체험 등)",시청자미디어재단 광주시청자미디어센터,영광 홍농중학교,,062-650-0324,https://kcmf.or.kr/comc/gwangju/,,광주광역시 서구 회재로 905,,35.12381317,126.8623375,2019-11-04,B553505,시청자미디어재단
섬마을미디어페스티벌 ''''미디어로 어깨동무 시즌7'''',"전남 완도 보길도, 노화도 일원",2019-08-27,2019-08-28,"낙도지역 시청자의 미디어 향유권 향상을 위한 프로그램 운영 (청소년 미디어캠프, 찾아가는 미디어 나눔버스, 마을 주민을 위한 미디어교육 등)",시청자미디어재단 광주시청자미디어센터,시청자미디어재단 광주시청자미디어센터,,062-650-0324,https://kcmf.or.kr/comc/gwangju/,,광주광역시 서구 회재로 905,,35.12381317,126.8623375,2019-11-04,B553505,시청자미디어재단
호남지역 미디어센터 네트워크 워크숍-전국 마을공동체 미디어 활성화를 위한 전국 현황과 전망 모색,전주 중부비전센터,2019-09-03,2019-09-03,호남 지역 미디어센터가 공동으로 진행하는 워크숍 개최로 지역 미디어 분야 현안 공유 및 협력 확대 도모,시청자미디어재단 광주시청자미디어센터,호남지역 미디어센터 네트워크 협의회,,062-650-0338,https://kcmf.or.kr/comc/gwangju/,,광주광역시 서구 회재로 905,,35.12381317,126.8623375,2019-11-04,B553505,시청자미디어재단
2019 전국청소년방송콘텐츠경연대회,김대중컨벤션센터 (광주에이스페어 야외무대),2019-09-28,2019-09-28,"청소년 실시간 무대, 방송 경연으로 우수 콘텐츠 발굴 및 미디어 인재 육성 기여","시청자미디어재단 광주시청자미디어센터, 김대중컨벤션센터, 광주광역시교육청","문화체육관광부, 광주광역시",,062-650-0336,https://kcmf.or.kr/comc/gwangju/,,광주광역시 서구 회재로 905,,35.12381317,126.8623375,2019-11-04,B553505,시청자미디어재단
동네방네 마을미디어 공개방송,광주시청자미디어센터,2019-12-04,2019-12-04,마을 미디어 활성화를 목표로 마을미디어교육 지원사업에 참여한 마을 단체가 진행하는 릴레이 유튜브 라이브 공개 방송,시청자미디어재단 광주시청자미디어센터,시청자미디어재단 광주시청자미디어센터,,062-650-0334,https://kcmf.or.kr/comc/gwangju/,,광주광역시 서구 회재로 905,,35.12381317,126.8623375,2019-11-04,B553505,시청자미디어재단
2019 중딩영화제,광주시청자미디어센터 2층 다목적홀,2018-12-19,2018-12-19,"학교미디어교육 우수사례와 우수 제작물 상영을 통한 성과와 정보교류의 장 마련. 전국 중학생 대상 영상·라디오분야 미디어창작물의 공모전 개최로 미디어제작 활성화 도모 및 우수작 발굴(방송통신위원장상, 광주광역시교육감상 등 시상)",시청자미디어재단 광주시청자미디어센터,시청자미디어재단 광주시청자미디어센터,광주광역시교육청,062-650-0332,http://kcmf.or.kr/comc/gwangju/,,광주광역시 서구 회재로 905,,35.12381317,126.8623375,2019-11-04,B553505,시청자미디어재단
2019 강원청소년 영상캠프 미디어람,강원시청자미디어센터,2019-07-31,2019-08-02,강원도내 중고생 60명 대상 2박 3일 영상제작 집중캠프,"시청자미디어재단 강원시청자미디어센터, 강원도교육청","시청자미디어재단 강원시청자미디어센터, 강원도교육청",강원도교육청,033-240-2310,http://kcmf.or.kr/comc/gangwon/,,강원도 춘천시 서면 박사로 882,,37.89497098,127.6925751,2019-11-04,B553505,시청자미디어재단
2019 강원 미디어체험 페스티벌(강원 영상콘텐츠 시상식),강원시청자미디어센터,2019-10-31,2019-10-31,강원도 드론공모전 및 1인 미디어 크리에이터 우수활동가 시상식 및 미디어체험 부스 운영,"시청자미디어재단 강원시청자미디어센터, 강원도","시청자미디어재단 강원시청자미디어센터, 강원도",강원도,033-240-2310,http://kcmf.or.kr/comc/gangwon/,,강원도 춘천시 서면 박사로 882,,37.89497098,127.6925751,2019-11-04,B553505,시청자미디어재단
2019 ''''방방곡곡 마을미디어'''' 마을미디어축제,강원시청자미디어센터,2019-12-14,2019-12-14,마을미디어활동 성과발표회(스트리밍 진행) 및 포럼,"시청자미디어재단 강원시청자미디어센터, 강원도교육청",시청자미디어재단 강원시청자미디어센터,강원도교육청,033-240-2310,http://kcmf.or.kr/comc/gangwon/,,강원도 춘천시 서면 박사로 882,,37.89497098,127.6925751,2019-11-04,B553505,시청자미디어재단
2019 청소년창작영상제,강원도청소년수련원 3층 극장,2019-12-06,2019-12-06,"청소년대상 영상공모전 및 시상식을 개최하여, 청소년들에게 미디어관련 진로탐색 기회 제공",강원도청소년수련원,"시청자미디어재단 강원시청자미디어센터, 강원도교육청, 강원도",강원도교육청,033-240-2310,http://kcmf.or.kr/comc/gangwon/,,강원도 춘천시 서면 박사로 882,,37.89497098,127.6925751,2019-11-04,B553505,시청자미디어재단
2019 강원 시민공동체미디어 포럼,강원시청자미디어센터,2019-11-29,2019-11-29,미디어교육 정보교류 및 제안 등 주제 발표 및 토론 진행,강원시청자미디어센터,시청자미디어재단 강원시청자미디어센터,,033-240-2310,http://kcmf.or.kr/comc/gangwon/,,강원도 춘천시 서면 박사로 882,,37.89497098,127.6925751,2019-11-04,B553505,시청자미디어재단
개관5주년 기념행사 ''''Oh 대시미'''',대전시청자미디어센터,2019-07-16,2019-07-16,대전시청자미디어센터 5년 성과 돌아보고 함께 축하하는 자리 마련,시청자미디어재단 대전시청자미디어센터,시청자미디어재단 대전시청자미디어센터,없음,042-865-3700,http://kcmf.or.kr/comc/daejeon/,,대전광역시 유성구 대덕대로 512번길 20,대전광역시 유성구 도룡동 3-1,36.37835566,127.3805319,2019-11-04,B553505,시청자미디어재단
"대전미디어페스티벌 ''''무엇이든 콘텐츠, 누구나 크리에이터''''",대전시청자미디어센터,2019-08-22,2019-08-24,유튜버의 모든 것을 특강·체험·경연으로 즐기는 중부권 최대의 미디어 축제,시청자미디어재단 대전시청자미디어센터,"방송통신위원회, 대전광역시","대전광역시교육청, 세종특별자치시교육청, 충청남도교육청, 한국콘텐츠진흥원, 대전정보문화산업진흥원, KBS대전, 대전MBC, TJB, CMB대전방송, 코노바",042-865-3700,http://kcmf.or.kr/comc/daejeon/,,대전광역시 유성구 대덕대로 512번길 20,대전광역시 유성구 도룡동 3-1,36.37835566,127.3805319,2019-11-04,B553505,시청자미디어재단
"2019 대전마을미디어 축제 잘 한다, 자란다, 대전마을미디어",대전시청자미디어센터,2019-12-19,2019-12-19,"강연, 전시, 시상을 통해 대전 마을미디어 활동 성과를 공유하고 활동가 및 시민들간의 네트워킹을 강화하는 축제의 장",시청자미디어재단 대전시청자미디어센터,대전광역시,미정,042-865-3700,http://kcmf.or.kr/comc/daejeon/,,대전광역시 유성구 대덕대로 512번길 20,대전광역시 유성구 도룡동 3-1,36.37835566,127.3805319,2019-11-04,B553505,시청자미디어재단
대전세종충남퍼블릭액세스시민영상제(날짜미정),대전시청자미디어센터,2019-12-20,2019-12-22,"지역 퍼블릭액세스 강화를 위한 대전,세종 충청지역의 대표 영상제","대전충남민주언론시민연합, 대전독립영화협회","시청자미디어재단 대전시청자미디어센터, 대전충남언론노조협의회, 대전충남민주언론시민연합, 대전독립영화협회",,042-865-3700,http://kcmf.or.kr/comc/daejeon/,,대전광역시 유성구 대덕대로 512번길 20,대전광역시 유성구 도룡동 3-1,36.37835566,127.3805319,2019-11-04,B553505,시청자미디어재단
대시미인의 밤,대전시청자미디어센터,2019-12-07,2019-12-07,한해 고생한 대시미인들을 칭찬하고 위로하는 시민 행복소통 송년회,시청자미디어재단 대전시청자미디어센터,시청자미디어재단 대전시청자미디어센터,없음,042-865-3700,http://kcmf.or.kr/comc/daejeon/,,대전광역시 유성구 대덕대로 512번길 20,대전광역시 유성구 도룡동 3-1,36.37835566,127.3805319,2019-11-04,B553505,시청자미디어재단
2019 시청자의 날(기존),인천시청자미디어센터,2019-12-13,2019-12-14,"드론 영상콘텐츠 공모전 시상식, 시청자제작단 성과 발표회, 미디어교육(학교,마을 등) 활동 사례 공유, 각종 이벤트",인천시청자미디어센터,인천시청자미디어센터,,032-722-7924,http://kcmf.or.kr/comc/incheon,,인천광역시 연수구 인천타워대로54번길 19,,37.37977992,126.6465733,2019-11-04,B553505,시청자미디어재단
연수미디어페스티벌(예정),인천시청자미디어센터,2019-12-13,2019-12-14,"연수주민마을방송 성과 발표회, 연수스토리 사연 공유, 청소년 독립영화 경진대회, 미디어체험 등","인천광역시 연수구청, 인천시청자미디어센터","인천광역시 연수구청, 인천시청자미디어센터",,032-722-7924,http://kcmf.or.kr/comc/incheon,,인천광역시 연수구 인천타워대로54번길 19,,37.37977992,126.6465733,2019-11-04,B553505,시청자미디어재단
2019 서울인라디오,홍대 걷고싶은 거리,2019-09-26,2019-09-28,서울 시민의 방송참여 기회 확대 및 마을미디어·공동체라디오 활성화 도모,"시청자미디어재단 서울시청자미디어센터, TBS교통방송, 공동체라디오 관악 FM, 마포 FM, 서울마을미디어네트워크, 동북마을미디어네트워크","시청자미디어재단 서울시청자미디어센터, TBS교통방송, 공동체라디오 관악 FM, 마포 FM, 서울마을미디어네트워크, 동북마을미디어네트워크",,02-922-9974,http://kcmf.or.kr/comc/seoul/,,서울특별시 성북구 보문로 171,,37.58930848,127.0158379,2019-11-04,B553505,시청자미디어재단
2019 서울센터 네트워크파티 ''가가호호'',미정,2019-12-04,2019-12-05,한해 사업을 결산하고 평가하여 내년도 사업의 방향과 토대를 마련. 센터 이요자와 관계자 등과 감사를 표하고 네트워킹의 장 제공,시청자미디어재단 서울시청자미디어센터,시청자미디어재단 서울시청자미디어센터,,052-960-7024,http://kcmf.or.kr/comc/ulsan/,,서울특별시 성북구 보문로 171,,37.58930848,127.0158379,2019-11-04,B553505,시청자미디어재단
2019 울대경 청소년미디어캠프 ''''함성소리'''',대구 가산산성,2019-08-01,2019-08-03,"울산, 대구, 경북 지역에서 미디어 관련 활동 중인 청소년의 교류의 장 마련, 청소년의 미디어 역량 강화 및 진로 탐색 기회 제공","울산시청자미디어센터, 대구MBC시청자미디어센터, 대구영상미디어센터","울산시청자미디어센터, 대구MBC시청자미디어센터, 대구영상미디어센터",미정,052-960-7035,http://kcmf.or.kr/comc/ulsan/,,울산광역시 북구 명촌10길 78,울산광역시 북구 명촌동 666-2,35.55590994,129.3598694,2019-11-04,B553505,시청자미디어재단
2019 자유학기제 맞춤형미디어교육 수륜 온 더 미디어캠프,경북 수륜중학교,2019-08-07,2019-08-09,"도서지역 청소년들의 방학 내 집중 미디어교육 및 미디어 역량 강화, 미디어 접근성 확대를 위한 맞춤형 미디어 캠프",시청자미디어재단 울산시청자미디어센터,시청자미디어재단 울산시청자미디어센터,미정,052-960-7023,http://kcmf.or.kr/comc/ulsan/,,울산광역시 북구 명촌10길 78,울산광역시 북구 명촌동 666-2,35.55590994,129.3598694,2019-11-04,B553505,시청자미디어재단
2019''모두가 노동자''영상공모전,울산시청자미디어센터,2019-09-30,2019-12-20,"일하는 모든 사람이 노동자라는 인식을 제고하고, 시민이 직접 ''노동''이라는 주제로 영상을 제작하는 노동자 영상공모전",시청자미디어재단 울산시청자미디어센터,"방송통신위원회, 시청자미디어재단 울산시청자미디어센터","울산광역시 , KBS울산방송국, 울산MBC, UBC울산방송",052-960-7023,http://kcmf.or.kr/comc/ulsan/,,울산광역시 북구 명촌10길 78,,35.55590994,129.3598694,2019-11-04,B553505,시청자미디어재단
1인미디어콘텐츠공모전,미정,2019-10-15,2019-12-24,1인 미디어 시대에 울산 지역 크리에이터 진흥과 콘텐츠 강화를 위한 공모전 실시,"시청자미디어재단 울산시청자미디어센터, 경상일보",경상일보,울산광역시 남구,052-960-7023,http://kcmf.or.kr/comc/ulsan/,,울산광역시 북구 명촌10길 78,,35.55590994,129.3598694,2019-11-04,B553505,시청자미디어재단
2019 시청자의 밤 (날짜미정),울산시청자미디어센터,2019-12-01,2019-12-31,"개관 3주년을 기념하고 2019년도 성과를 평가, 공유하기 위한 시민, 강사 참여 미디어 축제",시청자미디어재단 울산시청자미디어센터,시청자미디어재단 울산시청자미디어센터,,052-960-7023,http://kcmf.or.kr/comc/ulsan/,,울산광역시 북구 명촌10길 78,,35.55590994,129.3598694,2019-11-04,B553505,시청자미디어재단
2019 청년일자리 희망한마당,울산대학교 체육관,2019-10-28,2019-10-28,"취업 준비 고교생, 대학생, 취업준비생, 일반인 대상 미디어계 유망 직업에 대한 채용 정보 제공","시청자미디어재단 울산시청자미디어센터, 경상일보",경상일보,,052-960-7023,http://kcmf.or.kr/comc/ulsan/,,울산광역시 북구 명촌10길 78,,35.55590994,129.3598694,2019-11-04,B553505,시청자미디어재단
2019 도서지역 학교미디어교육 죽변중학교 미디어캠프,경북 울진 죽변중학교,2019-09-16,2019-09-18,도서지역 찾아가는 미디어교육을 통한 도서지역 학생들의 미디어 접근권 제고 및 미디어역량 강화,시청자미디어재단 울산시청자미디어센터,시청자미디어재단 울산시청자미디어센터,,052-960-7023,http://kcmf.or.kr/comc/ulsan/,,울산광역시 북구 명촌10길 78,,35.55590994,129.3598694,2019-11-04,B553505,시청자미디어재단
장수 한우랑 사과랑 축제,전라북도 장수군 의암공원 일원,2019-09-06,2019-09-08,"체험,공연,판매 등 64개프로그램",사)장수한우랑사과랑축제추진위원회,전라북도 장수군,전라북도,063-350-5447,http://www.jangsufestival.com,장수 한우랑 사과랑 축제,전라북도 장수군 장수읍 한누리로 393,전라북도 장수군 장수읍 두산리 472,35.6411154,127.253641,2019-04-01,4750000,전라북도 장수군
백제 어울마당,공산성,2017-04-15,2017-11-05,"백제기악 미마지탈극, 백제춤추기 체험 등",봉황기획,공주시,,041-840-8069,,,충청남도 공주시 웅진로 28,충청남도 공주시 금성동 65-3,36.465007,127.1236356,2019-09-25,4500000,충청남도 공주시
웅진성수문병 근무교대식,공산성 금서루,2017-04-15,2017-10-29,"수문병 근무교대식,백제왕.왕비복 체험,  옥사체험,    활쏘기 체험 등",웅진문화회,공주시,,041-840-8069,,,충청남도 공주시 웅진로 280,충청남도 공주시 금성동 65-3,36.46521533,127.1236802,2019-09-25,4500000,충청남도 공주시
공주 석장리 구석기축제,석장리박물관,2017-05-03,2017-05-07,구석기문화 체험,공주석장리구석기축제조직위원회,공주시,,041-840-8090,,,충청남도 공주시 금벽로 990,충청남도 공주시 석장리동 118,36.44795221,127.1875895,2019-09-25,4500000,충청남도 공주시
계룡산산신제,계룡면 양화리 신원사일원,2017-04-12,2017-04-16,"유.불.무가식 산신제,점사체험, 기체험, 다양한 무대공연 등",계룡산산신제보존회,공주시,,041-840-8093,,,충청남도 공주시 계룡면 보목고개로 393,충청남도 공주시 계룡면 양화리 165-1,36.333638,127.177107,2019-09-25,4500000,충청남도 공주시
마곡사 신록축제,사곡면 운암리 마곡사일원,2017-04-22,2017-04-22,"명상길 걷기,템플스테이, 전국 학생그림그리기 대회",마곡사신록축제추진위원회,공주시,,041-840-8093,,,충청남도 공주시 사곡면 마곡사로 966 마곡사,충청남도 공주시 사곡면 운암리 567,36.55906839,127.0122348,2019-09-25,4500000,충청남도 공주시
제63회 백제문화제,금강신관공원,2017-09-28,2017-10-05,"웅진성퍼레이드,체험마당, 무대공연,농특산품전시 및 판매",백제문화선양위원회,백제문화제추진위원회,,041-840-8090,,,충청남도 공주시 신관동 553,충청남도 공주시 신관동 553,36.46891899,127.1271045,2019-09-25,4500000,충청남도 공주시
2017 겨울공주군밤축제,금학생태공원,2017-12-22,2018-01-28,눈썰매장 및 겨울놀이시설 운영,겨울공주 군밤축제추진위원회,공주시,,041-840-8090,,,충청남도 공주시 금학동 111-1,충청남도 공주시 금학동 111-1,36.43336915,127.124038,2019-09-25,4500000,충청남도 공주시
2018 백제어울마당,송산리고분군(무령왕릉) 일원,2018-04-14,2018-10-28,"미마지탈 만들고 써보기, 백제춤주기, 퓨전공연 등",봉황기획,공주시,,041-840-8069,,,충청남도 공주시 왕릉로 37,충청남도 공주시 웅진동 57-1,36.46060505,127.1126907,2019-09-25,4500000,충청남도 공주시
2018 웅진성수문병 근무교대식,공산성 금서루,2018-04-21,2018-11-04,"수문병 근무교대식, 공산성 성벽극장 인형극, 관광객과 함께하는 어가행렬",웅진문화회,공주시,,041-840-8069,,,충청남도 공주시 웅진로 280,충청남도 공주시 금성동 65-3,36.46521533,127.1236802,2019-09-25,4500000,충청남도 공주시
2018 공주 석장리 세계구석기축제,석장리박물관,2018-05-04,2018-05-07,"네안데르탈인 특별전시전, 별빛토크쇼, 구석기문화 체험 등",공주석장리구석기축제조직위원회,공주시,,041-840-8112,,,충청남도 공주시 금벽로 990,충청남도 공주시 석장리동 118,36.44795221,127.1875895,2019-09-25,4500000,충청남도 공주시
2018 계룡산산신제,계룡면 양화리 신원사일원,2018-04-28,2018-05-01,"유.불.무가식 산신제,점사체험, 기체험, 다양한 무대공연 등",계룡산산신제보존회,공주시,,041-840-8093,,,충청남도 공주시 계룡면 보목고개로 393,충청남도 공주시 계룡면 양화리 165-1,36.333638,127.177107,2019-09-25,4500000,충청남도 공주시
제15회 마곡사신록축제,사곡면 운암리 마곡사일원,2018-05-12,2018-05-13,"버스킹공연, 소나무심기, 야생화 전시, 농특산물 판매 등",마곡사신록축제추진위원회,공주시,,041-840-8093,,,충청남도 공주시 사곡면 마곡사로 966 마곡사,충청남도 공주시 사곡면 운암리 567,36.55906839,127.0122348,2019-09-25,4500000,충청남도 공주시
2018 계룡산벚꽃축제,계룡산 동학사 일원,2018-04-06,2018-04-15,"야간경관 설치, 계룡산벚꽃가요제, 분청사기 만들기, 먹거리 운영 등",계룡산축제추진위원회,공주시,,041-840-8093,,,충청남도 공주시 반포면 동학사1로 167-31,충청남도 공주시 반포면 학봉리 631-9,36.36030634,127.2509274,2019-09-25,4500000,충청남도 공주시
2018 마곡사토요무대,마곡사관광지 야외무대,2018-07-07,2018-08-25,"버스킹공연, 프린지공연, 섹소폰 연주, 국악연주 등",마곡사상인연합회,공주시,,041-840-8093,,,충청남도 공주시 사곡면 마곡사로 854,충청남도 공주시 사곡면 운암리 722-4,36.55728753,127.0183843,2019-09-25,4500000,충청남도 공주시
제64회 백제문화제,금강신관공원 및 공산성 일원,2018-09-14,2018-09-22,"K-POP 한류페스티벌, 웅진성퍼레이드, 체험마당, 먹거리마당, 농특산물판매 등",공주시백제문화선양위원회,백제문화제추진위원회,,041-840-8069,,,충청남도 공주시 신관동 553,충청남도 공주시 신관동 553,36.46891899,127.1271045,2019-09-25,4500000,충청남도 공주시
2019겨울공주군밤축제,고마아트센터,2019-01-18,2019-01-20,눈썰매장 및 겨울놀이시설 운영,겨울공주 군밤축제추진위원회,공주시,,041-840-8093,,,충청남도 공주시 금학동 111-1,충청남도 공주시 금학동 111-1,36.43336915,127.124038,2019-09-25,4500000,충청남도 공주시
2019 백제어울마당,송산리고분군(무령왕릉) 일원,2019-05-04,2019-11-02,"미마지탈극, 무예극, 백제탈 체험 등",JK커뮤니케이션,공주시,,041-840-8069,,,충청남도 공주시 왕릉로 37,충청남도 공주시 웅진동 57-1,36.46060505,127.1126907,2019-09-25,4500000,충청남도 공주시
2019 웅진성수문병 근무교대식,공산성 금서루,2019-05-04,2019-11-10,"수문병 근무교대식, 체험프로그램 등",봉황기획,공주시,,041-840-8069,,,충청남도 공주시 웅진로 280,충청남도 공주시 금성동 65-3,36.46521533,127.1236802,2019-09-25,4500000,충청남도 공주시
2019 공주 석장리 구석기축제,석장리박물관,2019-05-03,2019-05-06,"네안데르탈인 특별전시전, 별빛토크쇼, 구석기문화 체험 등",공주석장리구석기축제조직위원회,공주시,,041-840-8112,,,충청남도 공주시 금벽로 990,충청남도 공주시 석장리동 118,36.44795221,127.1875895,2019-09-25,4500000,충청남도 공주시
2019 계룡산산신제,계룡면 양화리 신원사일원,2019-04-20,2019-04-21,"유.불.무가식 산신제,점사체험, 다양한 무대공연 등",계룡산산신제보존회,공주시,,041-840-2056,,,충청남도 공주시 계룡면 보목고개로 393,충청남도 공주시 계룡면 양화리 165-1,36.333638,127.177107,2019-09-25,4500000,충청남도 공주시
제16회 마곡사신록축제,사곡면 운암리 마곡사일원,2019-04-27,2019-04-28,"버스킹공연, 꽃화분, 야생화 전시, 보물찾기, 농특산물 판매 등",마곡사신록축제추진위원회,공주시,,041-840-2056,,,충청남도 공주시 사곡면 마곡사로 966 마곡사,충청남도 공주시 사곡면 운암리 567,36.55906839,127.0122348,2019-09-25,4500000,충청남도 공주시
2019 계룡산벚꽃축제,계룡산 동학사 일원,2019-04-05,2019-04-14,"야간경관 설치, 계룡산벚꽃가요제, 분청사기 만들기, 먹거리 운영 등",계룡산축제추진위원회,공주시,,041-840-2056,,,충청남도 공주시 반포면 동학사1로 167-31,충청남도 공주시 반포면 학봉리 631-9,36.36030634,127.2509274,2019-09-25,4500000,충청남도 공주시
갑사황매화 축제,갑사일원,2019-04-26,2019-04-28,"문화공연, 체험, 갑사 과거사 사진전시회 등",갑사번영회,공주시,,041-840-8093,,,충청남도 공주시 계룡면 갑사로 567-3,충청남도 공주시 계룡면 갑사로 567-3,36.36607692,127.1864443,2019-09-25,4500000,충청남도 공주시
공주항공축제,공주경비행기장(정안천 일원),2019-05-04,2019-05-06,"경량항공기 활주로 주행체험, 포토존, 물로켓 만들기등",공주경비행기,공주시,,041-840-8093,,,충청남도 공주시 의당면 수촌리 943,충청남도 공주시 의당면 수촌리 943,36.51052026,127.1258208,2019-09-25,4500000,충청남도 공주시
공주 금강여름축제,고마아트센터,2019-07-26,2019-07-28,"국악&재즈공연, 프린지공연, 밴드경연대회, 물놀이 체험및 전시, 먹거리 운영 등",공주 금강여름축제조직위원회,공주시,,041-840-2056,,,충청남도 공주시 사곡면 마곡사로 854,충청남도 공주시 사곡면 운암리 722-4,36.55728753,127.0183843,2019-09-25,4500000,충청남도 공주시
제65회 백제문화제,금강신관공원 및 공산성 일원,2019-09-28,2019-10-06,"웅진파타지아, 웅진성퍼레이드, 체험마당, 먹거리마당, 농특산물판매 등",공주시백제문화선양위원회,백제문화제추진위원회,,041-840-8069,,,충청남도 공주시 신관동 553,충청남도 공주시 신관동 553,36.46891899,127.1271045,2019-09-25,4500000,충청남도 공주시
태강릉 문화제,"태릉, 경춘선 숲길 화랑대 철도공원",2019-04-20,2019-04-20,"어가행렬, 각종공연, 체험프로그램 등",노원문화원/조선왕릉문화벨트 콘텐츠활용사업추진단,노원문화원/노원구·구리시·성북구·남양주시,"노원구, 서울시 등",02-2116-3774,,"태릉, 강릉, 경춘선 숲길 화랑대 철도공원",서울특별시 노원구 화랑로 608,서울특별시 노원구 공릉동 29-4,37.624881,127.093038,2019-04-15,3100000,서울특별시 노원구
노원등축제,어린이교통공원 아래 당현천,2019-04-27,2019-05-06,"등,빛 작품 전시, 체험프로그램, 먹거리,전시 부스 운영 등",노원문화원,노원문화원,,,,,서울특별시 노원구 상계동 683-1,,,,2019-04-15,3100000,서울특별시 노원구
노원탈축제,롯데백화점 ~ 순복음교회 사이 도로(노해로),2019-10-19,2019-10-20,"19개동마을축제, 생활예술동아리 축제, 탈퍼레이드, 특화사업, 축하공연, 체험부스, 마들탈가요제 등",노원탈축제추진위원회,노원탈축제추진위원회,,,,,서울특별시 노원구 상계동 719-1,,,,2019-04-15,3100000,서울특별시 노원구
2019 군포철쭉축제,"철쭉동산, 초막골생태공원, 산본로데오거리 등",2019-04-24,2019-04-28,"개·폐막식, 공연프로그램, 체험프로그램, 노차로드, 푸드트럭존 운영 등",경기도 군포문화재단,경기도 군포시청,경기도청/경기관광공사,031-390-3515,http://www.gunpofestival.org/,,경기도 군포시 고산로 599,경기도 군포시 산본동 1152-14,37.3548052,126.9225521,2019-05-23,4020000,경기도 군포시
춘장대해수욕장 여름문화예술축제,춘장대해수욕장 중앙광장,2019-08-02,2019-08-03,"한여름밤의 트롯이야기, 춘장대 시네마, 춘장대 푸파 페스티벌 등",춘장대해수욕장 운영협의회,서천군,없음,041-950-4019,http://tour.seocheon.go.kr,"축제 일정, 프로그램",충청남도 서천군 서면 춘장대길 20,충청남도 서천군 서면 도둔리 1319,36.16334922,126.5243355,2019-12-17,4580000,충청남도 서천군
자연산 광어.도미 축제,서면 마량포구 일원,2019-05-11,2019-05-26,"맨손으로 광어잡기 체험, 기념공원에서 보물찾기",서면개발위원회,서면개발위원회,없음,041-950-4016,http://tour.seocheon.go.kr,"축제 일정, 프로그램",충청남도 서천군 서면 서인로 56,충청남도 서천군 서면 마량리 339-6,36.1293642,126.5036472,2019-12-17,4580000,충청남도 서천군
동백꽃 주꾸미 축제,서면 마량포구 일원,2019-03-16,2019-03-31,"어린이 주꾸미 낚시 체험, 동백나무숲 보물찾기 이벤트",서면개발위원회,서면개발위원회,충청남도,041-950-4016,http://tour.seocheon.go.kr,"축제 일정, 프로그램",충청남도 서천군 서면 서인로 56,충청남도 서천군 서면 마량리 339-6,36.12939436,126.5036155,2019-12-17,4580000,충청남도 서천군
마량포 해넘이.해돋이 축제,서면 마량포구 일원,2019-12-31,2020-01-01,"새해 떡국나눔행사, 불꽃놀이, 버스킹 공연, 소원등 달기",서면개발위원회,서천군,없음,041-950-4019,http://tour.seocheon.go.kr,"축제 일정, 프로그램",충청남도 서천군 서면 서인로 56,충청남도 서천군 서면 마량리 339-6,36.1293642,126.5036472,2019-12-17,4580000,충청남도 서천군
홍원항 자연산 전어.꽃게 축제,서면 홍원항 일원,2019-09-21,2019-10-06,"맨손으로 전어 잡기 체험, 추억의 놀이 체험, 숨겨진 보물을 찾아라, 비눗방울 놀이 등",홍원항마을축제추진위원회,홍원항마을축제추진위원회,없음,041-950-4016,http://tour.seocheon.go.kr,"축제 일정, 프로그램",충청남도 서천군 서면 홍원길 130-3,충청남도 서천군 서면 도둔리 1222-7,36.15886,126.4992204,2019-12-17,4580000,충청남도 서천군
한산모시문화제,한산모시관 일원,2019-06-07,2019-06-10,한산모시를 주제로 하는 다양한 프로그램 운영,한산모시문화제추진위원회,서천군,"문화체육관광부, 충청남도, 농협 등",041-950-4256,www.hansanmosi.kr/,"축제 일정, 프로그램",충청남도 서천군 한산면 충절로 1089,충청남도 서천군 한산면 지현리 60-1,36.0799445,126.7987047,2019-12-17,4580000,충청남도 서천군
파주북소리2019,파주출판도시 일원,2019-11-02,2019-11-06,"개막식, 아트북 전시, 책만들기 체험, 기획전시, 독서동아리대상, 강연, 공연, 북토크 등",출판도시문화재단,"파주시,출판도시문화재단",,031-955-0050,http://www.pajubooksori.kr,,경기도 파주시 회동길 145,경기도 파주시 문발동 524-3,37.70848286,126.6867921,2019-12-02,4060000,경기도 파주시
제32회 율곡문화제,파주 이이유적,2019-10-12,2019-10-13,"제향, 유가행렬,음악회,불꽃축제, 각종 공연 및 체험행사 등",파주문화원,파주시,"경기도교육청,경기도파주교육지원청",031-940-4352,http://tour.paju.go.kr,,경기도 파주시 법원읍 자운서원로 204,경기도 파주시 법원읍 동문리 산5-1,37.86497423,126.8696173,2019-12-02,4060000,경기도 파주시
제15회 파주개성인삼축제,임진각 광장,2019-10-19,2019-10-20,"파주개성인삼 전시 및 판매, 농특산물 홍보 및 판매, 각종 공연 및 체험행사 등",파주개성인삼추진위원회,파주시,,031-940-5282,http://tour.paju.go.kr,,경기도 파주시 임진각로 177,경기도 파주시 마정리 1325-1,37.8893177,126.7400657,2019-12-02,4060000,경기도 파주시
제23회 파주장단콩축제,임진각 광장,2019-11-22,2019-11-24,"파주장단콩 전시 및 판매, 농특산물 홍보 및 판매, 각종 공연 및 체험행사 등",파주장단콩추진위원회,파주시,,031-940-5281,http://tour.paju.go.kr,,경기도 파주시 임진각로 177,경기도 파주시 마정리 1325-1,37.8893177,126.7400657,2019-12-02,4060000,경기도 파주시
제2회 연제고분판타지축제,온천천시민공원,2019-09-27,2019-09-29,"왕가의 행렬, 왕가의 부활 및 귀환, 전시행사, 문화공연, 체험행사 등",연제구 축제추진위원회,연제구 축제추진위원회,부산광역시 연제구청,051-665-4062,,"연산동 고분군 (蓮山洞 古墳群, 국가사적 제539호)",,부산광역시 연제구 연산동 956-46,35.183681,129.088039,2019-11-05,3370000,부산광역시 연제구
우륵문화제,충주공설운동장,2019-09-26,2019-09-29,"문화행사, 공연, 전시,대회",우륵문화제추진위원회,충주예총,충주시,043-847-1565,www.cjart.or.kr,충주시홈페이지,충청북도 충주시 관아5길 10,충청북도 충주시 성내동 232-2,36.970076,127.9360876,2019-07-27,4390000,충청북도 충주시
지리산 바래봉 눈꽃축제,지리산허브밸리 일원,2018-12-29,2019-02-10,"눈 썰매,얼음 썰매,빙벽 체험장, 바래봉 눈꽃등반대회,눈싸움대회, 허브체험외 각종체험등",운봉애향회,운봉읍,"남원시, 운봉읍 이장단 · 사회봉사단체",063-620-3818,http://www.namwon.go.kr/tour/index.do,,전라북도 남원시 운봉읍 바래봉길 214,전라북도 남원시 운봉읍 용산리 446-3,35.4350897,127.5486175,2019-09-10,4700000,전라북도 남원시
제31회 지리산 뱀사골 고로쇠 약수제,지리산뱀사골 반선관광주차장,2019-03-02,2019-03-02,"약수제 길놀이,약수 제례, 노래자랑,고로쇠 관련이벤트, 천년송 힐링 걷기 대회등 3월첫째주 1일간",산내발전협의회,산내면,"남원시, 지리산뱀사골고로쇠영농조합법인",063-620-4705,http://www.namwon.go.kr/tour/index.do,,전라북도 남원시 산내면 지리산로 842-8,전라북도 남원시 산내면 부운리 216-10,35.3769935,127.581604,2019-09-10,4700000,전라북도 남원시
제89회 춘향제,광한루원 일원,2019-05-08,2019-05-12,"춘향국악대전, 춘향선발대회, 세기의사랑 대표적 예술공연, 지금은 춘향시대, 신판 춘향 길놀이, 이판사판춤판 등 음력4월8일 전후4일간 열림",춘향제전위원회,남원시,남원시 전라북도 문화체육관광부 한국문화예술위원회,063-620-5773,http://www.namwon.go.kr/tour/index.do,,전라북도 남원시 요천로 1447,전라북도 남원시 천거동 78,35.40412922,127.3805045,2019-09-10,4700000,전라북도 남원시
제25회 지리산 바래봉 철쭉제,지리산허브밸리 일원,2019-05-04,2019-05-04,"철쭉제례,농악터울림, 기념식,철쭉트레킹,노래자랑등",운봉애향회,운봉읍,"남원시, 운봉읍 사회(봉사)단체",063-620-3818,http://www.namwon.go.kr/tour/index.do,,전라북도 남원시 운봉읍 바래봉길 214,전라북도 남원시 운봉읍 용산리 446-3,35.4350897,127.5486175,2019-09-10,4700000,전라북도 남원시
제24회 봉화산 철쭉제,남원시 아영면 봉화산 주차장,2019-05-04,2019-05-04,"산신제,기념식,철쭉 백일장, 봉화산트레킹등",흥부골아영애발전협의회,아영면,"남원시, 아영면 사회단체, 재경아영향우회",063-620-4084,http://www.namwon.go.kr/tour/index.do,,전라북도 남원시 아영면 성리 산56-6,전라북도 남원시 아영면 성리 산56-6,35.52407924,127.576659,2019-09-10,4700000,전라북도 남원시
흥부제,사랑의광장 일원,2019-10-11,2019-10-13,"고유제,축하공연,문화나눔장터, 흥부놀부그림그리기대회, 흥부체험마당,창극흥부와놀부 등 매년 음력 9월9일 전후 (3일간)",흥부제전위원회,남원시,국립민속국악원,063-620-5772,http://www.namwon.go.kr/tour/index.do,,전라북도 남원시 양림길 12,전라북도 남원시 어현동 37-19,35.40294891,127.3866197,2019-09-10,4700000,전라북도 남원시
지리산 뱀사골 단풍제,지리산 북부 사무소 앞,2019-10-15,2019-10-30,"개막식,천년송소원빌기, 뱀사골와운단풍길트레킹, 각종체험,농특산품판매장운영등 10월중 하루 열림",산내면발전협의회,산내면,남원시,063-620-4705,http://www.namwon.go.kr/tour/index.do,,전라북도 남원시 산내면 와운길 10,전라북도 남원시 산내면 부운리 252,35.37179793,127.579137,2019-09-10,4700000,전라북도 남원시
고창모양성제,모양성 일원,2019-10-03,2019-10-07,"거리퍼레이드, 답성놀이, 강강술래 등",(사)모양성보존회,(사)모양성보존회,"국방부, 문화체육관광부, 전라북도, 고창군, 한빛원자력",063-560-2454,www.gochang.go.kr/moyangfestival/index.gochang,"고창군민의날, 기념식,",전라북도 고창군 고창읍 중앙로 292,전라북도 고창군 고창읍 교촌리 55-2,35.43534518,126.7066502,2019-09-30,4780000,전라북도 고창군
고창청보리밭축제,고창군 공음면 학원농장 일원,2019-04-20,2019-05-12,"청보리밭사잇길걷기, 주말문화행사, 상설전시 및 연계행사 등",고창청보리밭축제위윈회,고창청보리밭축제위윈회,"고창군, 한수원(주)한빛원자력본부, 농협 고창군지부",063-562-9897,www.gochang.go.kr/chungbori/,"기념식, 공연, 판매부스 등",전라북도 고창군 공음면 학원농장길 158-6,전라북도 고창군 공음면 학원농장길 158-6,35.37610584,126.543619,2019-09-30,4780000,전라북도 고창군
동학농민혁명 무장기포기념제,동학농민혁명 무장기포지,2019-04-25,2019-04-25,"출정식, 진격로 걷기, 비기탈취 및 무혈입성재연, 기념식 등",동학농민혁명무장기포기념제,동학농민혁명무장기포기념제,"고창군, 한수원(주)한빛원자력본부",063-560-2461,http://donghak.gochang.go.kr,"동학농민혁명무장기포기념제, 무장읍성축제 등",전라북도 고창군 공음면 선운대로 308,전라북도 고창군 공음면 구암리 589-2,35.4037328,126.4955322,2019-09-30,4780000,전라북도 고창군
고창복분자와수박축제,선운산도립공원,2019-06-21,2019-06-23,"기념식,복분자 수박관련 체험, 농특산품판매 등",고창복분자와수박축제위원회,고창복분자와수박축제위원회,"고창군, 한수원(주)한빛원자력본부, 농협 고창군지부",,www.goboksu.co.kr,"기념식,복분자 수박관련 체험, 농특산품판매 등",전라북도 고창군 아산면 선운사로 250,전라북도 고창군 아산면 삼인리 500,35.49723407,126.578159,2019-09-30,4780000,전라북도 고창군
고창갯벌축제,"만돌갯벌체험장, 하전갯벌체험장",2019-06-07,2019-06-09,"개막행사,갯벌체험,동죽시식회,동죽음식문화체험,갯벌체험,장어숭어잡기,갯벌카페,부대행사 등",고창갯벌축제위원회,고창갯벌축제위원회,"해양수산부, 전라북도, 고창군, 고창군수산업협동조합, 만월어촌계, 하전어촌계, 자율관리공동체, 한빛원전",063-560-2633,http://mud-exp.gochang.go.kr,동호해수욕장,전라북도 고창군 심원면 애향갯벌로 320,전라북도 고창군 심원면 애향갯벌로 320,35.53007446,126.5150432,2019-09-30,4780000,전라북도 고창군
무장읍성축제,무장읍성 일원,2019-05-14,2019-05-14,"고유제(진무제), 현감부임 행사, 떡메치기 등",(사)고창무장읍성보존회,(사)고창무장읍성보존회,"고창군, 영광한빛원자력본부, NH 농협 고창군지부, 관내 14개 읍?면",,www.gochang.go.kr/culture/board/view.gochang?boardId=BBS_0000220&menuCd=DOM_000000603001009000&startPge=1&dataSid=391976,축성602주년 기념식,전라북도 고창군 무장면 무장읍성길 45,전라북도 고창군 고창군 무장면 성내리 156,35.41841778,126.5573463,2019-09-30,4780000,전라북도 고창군
고창해풍고추축제,해리복지회관일원,2019-08-23,2019-08-25,"기념식, 고추품평회, 공연, 전시판매, 고추관련체험 등",고창해풍고추축제위원회,고창해풍고추축제위원회,"고창군, 한수원(주)한빛원자력본부, 농협 고창군지부",,www.gochang.go.kr/seawindgochu,"기념식, 고추품평회, 공연, 전시판매, 고추관련체험 등",전라북도 고창군 해리면 청해1길 15,전라북도 고창군 해리면 하련리 628-3,35.46113146,126.5377985,2019-09-30,4780000,전라북도 고창군
2019 대한민국 온천대축제,석정온천관광지 일원,2019-10-02,2019-10-06,"온천수 칵테일쇼 및 시음행사, 달빛버스킹, 온천3종경기, 리마인드 프러포즈 등","행정안전부, 전라북도","고창군, (특)한국온천협회","대한온천학회, 한국관광공사",063-560-2952,www.gochang.go.kr/culture/board/view.gochang?boardId=BBS_0000220&meCd=DOM_000000603001010000&startPage=1&dataSid=397852,"개막식, 고창실버타워동호회 공연, 고창예술단체 공연 등",전라북도 고창군 고창읍 석정2로 153,전라북도 고창군 고창읍 석정리 727,35.43119627,126.7383544,2019-09-30,4780000,전라북도 고창군
제13회 신성한마음축제,사이언스 대덕종합운동장,2019-08-10,2019-08-10,"주민발표회, 벼룩시장, 체험 등 부대행사",신성동마을축제추진위원회,신성동마을축제추진위원회,,042-601-6788,,,대전광역시 유성구 가정로 120(신성동),대전광역시 유성구 신성동 8,36.38422742,127.357276,2019-09-03,3670000,대전광역시 유성구
제17회 한여름밤의 축제,엑스포근린공원,2019-08-24,2019-08-24,"주민발표회, 체험 등 부대행사, 먹거리 장터 등",전민동마을축제추진위원회,전민동마을축제추진위원회,,042-601-6803,,,대전광역시 유성구 엑스포로 476(전민동),대전광역시 유성구 전민동 467-3,36.3985684,127.4053327,2019-09-03,3670000,대전광역시 유성구
제3회 노은3동한마음축제,해랑숲근린공원,2019-09-20,2019-09-20,"주민발표회, 벼룩시장, 체험 등 부대행사",노은3동 한마음축제추진위원회,노은3동 한마음축제추진위원회,,042-601-6944,,,,대전광역시 유성구 지족동 1067,36.38411195,127.305374,2019-09-03,3670000,대전광역시 유성구
2019 노은한마음축제,은구비공원,2019-09-27,2019-09-27,"체험마당, 경연마당, 공연마당 등",노은1·2동 한마음축제추진위원회,노은1·2동 한마음축제추진위원회,,042-601-6745,,,,대전광역시 유성구 지족동 920,36.37419807,127.3242295,2019-09-03,3670000,대전광역시 유성구
제6회 스마일원신흥축제,작은내수변공원,2019-09-28,2019-09-28,"주민발표회, 벼룩시장, 체험 등 부대행사",스마일원신흥축제추진위원회,스마일원신흥축제추진위원회,,042-601-6914,,,,대전광역시 유성구 봉명동 1042,36.34525283,127.3458244,2019-09-03,3670000,대전광역시 유성구
제4회 온천1·2동한마당축제,유성온천공원,2019-10-05,2019-10-05,"주민공연, 체험부스, 벼룩시장, 먹거리 장터 등",온천1·2동한마당축제추진위원회,온천1·2동한마당축제추진위원회,,042-601-6685,,,,대전광역시 유성구 봉명동 574,36.35574111,127.3454137,2019-09-03,3670000,대전광역시 유성구
제9회 관평골축제,동화울 수변공원,2019-10-11,2019-10-11,"주민발표회, 체험 등 부대행사",관평동마을축제추진위원회,관평동마을축제추진위원회,,042-601-6895,,,대전광역시 유성구 테크노중앙로 88(관평동),대전광역시 유성구 관평동 771,36.4243927,127.3940968,2019-09-03,3670000,대전광역시 유성구
제14회 구즉한마당축제,송강근린공원,2019-10-12,2019-10-12,"화합경기,부대행사, 공연, 먹거리 등",구즉한마당축제추진위원회,구즉한마당축제추진위원회,,042-601-6835,,,대전광역시 유성구 송강로42번길 34(송강동),대전광역시 유성구 송강동 9,36.43500958,127.3841005,2019-09-03,3670000,대전광역시 유성구
제21회 진잠주민화합한마당,진잠초등학교,2019-10-19,2019-10-19,"경로위안잔치, 주민화합잔치, 청소년페스티벌, 주민가요제",진잠주민 화합의 한마당 추진위원회,진잠주민 화합의 한마당 추진위원회,,042-601-6655,,,대전광역시 유성구 진잠로59번길 53(원내동),대전광역시 유성구 원내동 62,36.29952727,127.3150867,2019-09-03,3670000,대전광역시 유성구
영천한약축제,영천한의마을,2019-09-27,2019-09-29,"한방명의관, 전시체험 부스운영, 한방공연 등",영천한약축제추진위원회,영천한약축제추진위원회,경상북도 영천시,054-339-7187,https://www.yc.go.kr/toursub/herb,영천한의마을,,경상북도 영천시 화룡동 128,35.9775233,128.9218161,2019-11-15,5100000,경상북도 영천시
영천문화예술제,영천강변공원 등 영천시 일원,2019-09-27,2019-09-29,"영천아리랑 별곡, 생활문화콘서트, 마상재, 조선통신사 행렬, 신 전별연",영천문화예술제 추진위원회,영천문화예술제 추진위원회,경상북도 영천시,054-330-6937,https://www.yc.go.kr/tour/contents.do?mId=0709030000,,,경상북도 영천시 문외동 137-5(번지 일원 영천강변공원),35.9730714,128.9328273,2019-11-15,5100000,경상북도 영천시
영천보현산별빛축제,보현산천문과학관 일원,2019-06-14,2019-06-16,"주제관 운영, 천문우주과학테마 체험부스 운영, 스타파티, 누워서 별보기, 문화공연 등",영천보현산별빛축제위원회,경상북도 영천시,경상북도,054-330-6702,https://www.yc.go.kr/toursub/star/,,경상북도 영천시 화북면 별빛로 681-32,경상북도 영천시 화북면 정각리 689,36.14024846,128.9967122,2019-11-15,5100000,경상북도 영천시
정월대보름행사,영천강변공원 등 영천시 일원,2019-02-19,2019-02-19,"정월대보름에 전통문화공연및 체험, 달집태우기, 떡국나눠먹기, 국악공연 등",영천시청년연합회,영천시청년연합회,경상북도 영천시,054-336-2727,,매년 음력 정월대보름에 개최되나 2019년은 구제역발생으로 취소됨.,"경상북도 영천시 천문로 323, 1층(괴전동)","경상북도 영천시 과전동 121-1, 1층",35.96656577,128.9312498,2019-11-15,5100000,경상북도 영천시
포항국제불빛축제,형산강 체육공원 일원,2019-05-31,2019-06-02,"국제불꽃쇼, 버스킹 페스티벌, 불빛퍼레이드, 주제공연 등",포항문화재단,포항시,"문화체육관광부,경상북도",054-289-7850,http://www.phcf.or.kr/,"형산강체육공원, 포항운하,영일대해수욕장,포스코 야경포스코 역사관",경상북도 포항시 남구 해도동 115-1,경상북도 포항시 남구 해도동 115-1,36.017859,129.374454,2019-09-11,5020000,경상북도 포항시
포항해병대문화축제,"오천읍 냉천수변공원, 도구해안",2019-04-27,2019-04-28,"해병대상륙작전, 블랙이글스 에어쇼, 부대방문 등",포항시,포항시,"문화체육관광부,경상북도",054-270-2243,,"오천읍 냉천수변공원, 도구해안",경상북도 포항시 남구 오천읍 해병로 293,경상북도 포항시 남구 오천읍 용덕리 267,35.96902317,129.4127411,2019-09-11,5020000,경상북도 포항시
포항운하축제,포항운하 일원,2019-09-21,2019-09-22,"이색창작배 경연대회, 방티타고 달리기, 이색레포츠 시연",포항MBC,포항시,경상북도,054-289-0123,http://www.phmbc.co.kr/,포항운하,경상북도 포항시 남구 희망대로 1040,경상북도 포항시 남구 송도동 222,36.02387158,129.3773906,2019-09-11,5020000,경상북도 포항시
포항 연날리기 한마당,형산강고수부지 일원,2019-09-01,2019-09-30,"꼬리연 높이 날리기 대회, 체험행사, 사생대회 등",포항CBS,포항시,경상북도,054-277-5500,http://www.phcbs.co.kr/,형산강고수부지,경상북도 포항시 남구 해도동 202-6,경상북도 포항시 남구 해도동 202-6,36.010908,129.368551,2019-09-11,5020000,경상북도 포항시
호미곶한민족해맞이축전,호미곶 해맞이광장 일원,2019-12-31,2020-01-01,"해맞이(일출), 자정행사, 특별행사, 1만명 떡국나둠 등",포항문화재단,포항시,경상북도,054-289-7850,http://www.phcf.or.kr/kr/,"호미곶해맞이광장,새천년기념관,연오랑세오녀상,국립등대박물관,이육사청포도시비,구룡포근대문화역사거리",경상북도 포항시 남구 호미곶면 해맞이로 136,경상북도 포항시 남구 호미곶면 대보리 293-1,36.07675839,129.5660588,2019-09-11,5020000,경상북도 포항시
포항시 대학연합축제(POP),중앙상가실개천거리 특설무대,2019-10-01,2019-10-30,"대학동아리 공연, 길거리 공연",포항대학연합,포항시,,054-270-2246,,,경상북도 포항시 북구 중앙상가길 31,경상북도 포항시 북구 대흥동 723-5,36.03793871,129.3636807,2019-09-11,5020000,경상북도 포항시
금산인삼축제,금산인삼관 광장 및 인삼약초시장 일원,2019-09-27,2019-10-06,"ㅇ인삼캐기체험, 건강체험관, 어린이힐링놀이터,인삼아트거리 등 체험ㅇ건강댄스경연,힐링콘서트, 전국창작동요경연대회 등 경연,공연ㅇ국제인삼교역전, 인삼왕수상작 전시 등 전시교역",금산축제관광재단,금산군,"산업통상자원부, 한국관광공사",041-750-4144,http://www.insamfestival.co.kr/,,충청남도 금산군 금산읍 인삼광장로 30,충청남도 금산군 금산읍 신대리 392,36.1000256,127.5007304,2019-08-23,4550000,충청남도 금산군
비단고을산꽃축제,군북면 산꽃벚꽃마을 오토캠핑장,2019-04-13,2019-04-14,"ㅇ강변슬라이딩, 금강족욕, 민물고기잡기 등 강변문화체험ㅇ경운기투어, 여치집만들기 등 외갓집체험ㅇ농바우끄시기, 물페기농요 등 민속공연",보곡산골마을회,금산문화원,금산군,041-750-4144,http://tour.geumsan.go.kr/,,충청남도 금산군 군북면 자진뱅이길 95,충청남도 금산군 군북면 산안리 294,36.19093401,127.5710874,2019-08-23,4550000,충청남도 금산군
금강여울축제,부리면 금강놀이마당,2019-07-12,2019-07-13,"ㅇ산꽃 술래길 건강걷기ㅇ숲속 작은 음악회, 산꽃음악회 등 공연프로그램 ㅇ산골 화덕음식체험, 산꽃손수건만들기 등 참여프로그램","물페기농요보존회, 농바우끄시기보존회",금산문화원,금산군,041-750-4144,http://tour.geumsan.go.kr/,,충청남도 금산군 부리면 적벽강로 189,충청남도 금산군 부리면 평촌리 10-5,36.0751568,127.5683215,2019-08-23,4550000,충청남도 금산군
금산천봄꽃축제,금산읍 금산천 일원,2019-04-06,2019-04-06,"ㅇ봄꽃노래자랑, 소원꽃잎적기, 주민자치센터공연, 봄꽃카페 등",금산천봄꽃축제추진위원회,금산천봄꽃축제추진위원회,금산군,041-750-8103,https://www.geumsan.go.kr/town_01/,,충청남도 금산군 금산읍 금산천길 28,충청남도 금산군 금산읍 상옥리 467-160,36.1020211,127.4843123,2019-08-23,4550000,충청남도 금산군
남일면홍도화축제,남일면 홍도마을 일원,2019-04-20,2019-04-21,"ㅇ홍도화가요제, 홍도화 길 꽃마차, 송어잡기체험, 나무곤충만들기 등",남일면홍도화축제추진위원회,남일면홍도화축제추진위원회,금산군,041-750-8506,http://www.geumsan.go.kr/town_06/,,충청남도 금산군 남일면 대홍로 632-8,충청남도 금산군 남일면 신정리 183,36.0171101,127.5180376,2019-08-23,4550000,충청남도 금산군
금천하모니벚꽃축제 2019,금천구청 광장 및 안양천변,2019-04-05,2019-04-06,"개막공연(금나래의전설), 꽃길만 걷자(아트브리지, 빛아트 등), 금천하모니오케스트라, 우리동네 슈퍼스타, 하모니벚꽃장 등",금천하모니벚꽃축제거버넌스,서울특별시 금천구청+금천문화재단,서울특별시,02-2627-1445,https://gcfac.or.kr/content?gcfac_menu_cd=U0107,,서울특별시 금천구 시흥대로73길 70,,37.45706511,126.8960352,2019-12-16,3170000,서울특별시 금천구
정조대왕 능행차 공동재현,시흥IC~시흥행궁,2019-10-05,2019-10-05,"의궤복원 프로그램(행렬, 격쟁 등), 주요행사(전통공연, 체험프로그램),주민환영행사프로그램(구민퍼레이드, 향토문화축제 등)",금천구,"서울특별시, 수원시, 화성시",서울특별시,02-2627-1452,http://www.kingjeongjo-parade.kr/,,서울특별시 금천구 은행나무로 45,,37.4510151,126.9075078,2019-12-16,3170000,서울특별시 금천구
여수영취산진달래체험행사,영취산일원 돌고개,2019-03-29,2019-03-31,산신제+진달래백일장+사생대회+체험행사,여수영취산진달래축제추진위원회,여수영취산진달래축제추진위원회,"여수시+산단공장장협의회,삼일동연합청년회",061-659-4743,http://www.ystour.kr/kr/festival/,,전라남도 여수시 흥국사길 160,전라남도 여수시 월내동 547,34.8210752,127.7003341,2019-06-03,4810000,전라남도 여수시
여수거북선축제,이순신광장 및 선소일원,2019-05-03,2019-05-05,통제영길놀이+개막행사+각종체험공연행사,여수거북선축제보존회 축제위원회,여수시+여수진남거북선축제보존회,,061-659-4742,http://geobukseonfestival.yeosu.go.kr,,전라남도 여수시 이순신광장로 95,전라남도 여수시 중앙동 385-6번지 등,34.73922445,127.7365808,2019-06-03,4810000,전라남도 여수시
여수여자만갯벌노을체험행사,소라면 해넘이길 일원(사곡),2019-10-13,2019-10-14,대나무망둥어낚시+개매기+바지락캐기+맨손고기잡이+가족사랑걷기체험+노을가요제,여수여자만갯벌노을체험행사추진위원회,여수시,여천농협+여수수협+새마을금고여수협의회,061-659-1091,http://www.ystour.kr/kr/festival/,,전라남도 여수시 소라면 서부로 785-24,전라남도 여수시 소라면 서부로 785-24,34.7902433,127.5680089,2019-06-03,4810000,전라남도 여수시
거문도백도은빛바다체험행사,삼산면 거문도 일원,2019-08-02,2019-08-04,길놀이+은빛가요제+맨손활어잡기+지인망끌기체험,거문도백도은빛바다축제추진위원회,거문도백도은빛바다축제추진위원회,,061-659-4744,http://www.ystour.kr/kr/festival/,,전라남도 여수시 삼산면 거문길 28-10,전라남도 여수시 삼산면 거문리 111-35,34.0256376,127.311945,2019-06-03,4810000,전라남도 여수시
여수밤바다 불꽃축제,이순신 광장 및 장군도 앞 해상,2019-09-08,2019-09-08,공연행사+불꽃쇼+불꽃사진콘테스트,여수밤바다불꽃축제추진위원회,여수시+여수진남거북선축제보존회,,061-659-4743,http://tour.yeosu.go.kr/ysff/,,전라남도 여수시 중앙동 385-6번지,전라남도 여수시 중앙동 385-6번지,34.7388016,127.7362426,2019-06-03,4810000,전라남도 여수시
여수향일암일출기원한마당,돌산읍 임포마을 일원,2019-12-31,2020-01-01,재야의종타종식+일출기원제례+소망행사,여수향일암일출기원한마당 추진위원회,여수향일암일출기원한마당추진위원회,,061-659-4742,http://www.ystour.kr/kr/festival/,,전라남도 여수시 향일암로 60,전라남도 여수시 돌산읍 율림리 산7,34.59379448,127.8029861,2019-06-03,4810000,전라남도 여수시
여수동동북축제,용기공원 및 선소일원,2019-11-10,2019-11-11,북퍼레이드+아티스트공연+북전시및체험행사+경연대회,2018여수동동북축제추진위원회,여수시,,061-659-1588,http://tour.yeosu.go.kr/dongdong,,전라남도 여수시 시청서 6길,전라남도 여수시 학동 201,34.756371,127.658676,2019-06-03,4810000,전라남도 여수시
청년거리문화축제,여수시 일원,2019-03-01,2019-12-31,"거리공연, 프리마켓 등",공모사업 선정,여수시,,061-659-4744,http://tour.yeosu.go.kr/dongdong,,전라남도 여수시 시청동1길 23,전라남도 여수시 학동 174,34.7585755,127.6636144,2019-06-03,4810000,전라남도 여수시
여수마칭페스티벌,이순신광장,2019-10-26,2019-10-27,거리퍼레이드+마칭쇼+관악체험프로그램,여수마칭페스티벌추진위원회,여수시,,,,,전라남도 여수시 이순신광장로 95,전라남도 여수시 중앙동 383,34.73922445,127.7365808,2019-06-03,4810000,전라남도 여수시
제 10회서면우리문화축제,부산시민공원 국립아트센터 부지,2018-04-28,2018-04-29,"전통,창작 공연, 전통 놀이·체험, 민속품 전시, 부대행사 등",부산광역시 부산진구청,부산광역시 부산진구청,,051-605-4064,http://tour.busanjin.go.kr,,부산광역시 부산진구 시민공원로 73 (범전동),부산광역시 부산진구 범전동 200,35.16545561,129.0558558,2019-11-19,3290000,부산광역시 부산진구
제9회 부산진구 북페스티벌,부산시민공원 다솜관,2019-09-20,2019-09-20,"인형극, 전시행사, 체험행사, 부대행사",부산광역시 부산진구청,부산광역시 부산진구청,,051-605-4872,http://tour.busanjin.go.kr,,부산광역시 부산진구 시민공원로 73 (범전동),부산광역시 부산진구 범전동 200,35.16545561,129.0558558,2019-11-19,3290000,부산광역시 부산진구
서면메디컬스트리트 축제,서면메디컬스트리트 일대,2019-11-01,2019-11-02,"개막행사, 의료체험, 문화체험, 연계행사 등",부산광역시 부산진구청,(사)SMS의료관광협의회,,051-605-6021,http://tour.busanjin.go.kr,,부산광역시 부산진구 가야대로 777(부전동),부산광역시 부산진구 부전동 486-12,35.1579588,129.0566547,2019-11-19,3290000,부산광역시 부산진구
전포카페거리축제,전포카페거리 일원,2019-10-19,2019-10-20,"개막식,퍼레이드,버스킹,체험 이벤트,  아트마켓 등",부산광역시 부산진구청,전포카페거리상인회,,051-605-4522,http://tour.busanjin.go.kr,,부산광역시 부산진구 동천로 92(전포동),부산광역시 부산진구 전포동 668-1,35.1570356,129.0630291,2019-11-19,3290000,부산광역시 부산진구
2019 순천 푸드앤아트 페스티벌,순천시 중앙로 일원,2019-09-27,2019-09-29,"순천대표음식 홍보 및 개발음식 판매, 거리극 공연, 전시체험, 주무대 공연 등",순천시 관광과,순천시,"전라남도, 문화체육관광부,한국지역진흥재단",061-749-5795,http://sc-fafestival.com,,전라남도 순천시 중앙로 232,,34.9666776,127.4860721,2019-12-19,4820000,전라남도 순천시
감천문화마을 골목축제,감천문화마을 일원,2019-04-26,2019-04-28,"골목나라퍼레이드,청소년프린지어워드, 골목노래자랑, 마을연극 등",(사)감천문화마을 주민협의회,부산광역시 사하구,,051-204-1444,http://www.gamcheon.or.kr,,부산광역시 사하구 감내2로 203 감천문화마을 (감천동),,35.0956104,129.0075299,2019-09-25,3340000,부산광역시 사하구
제23회 단양온달문화축제,영춘면 온달관광지 및 단양읍 일원,2019-10-18,2019-10-20,제23회 단양온달문화축제,온달문화축제추진위원회,단양문화원,단양군청,043-420-2552,http://ondalfestival.or.kr,제23회 단양온달문화축제,충청북도 단양군 영춘면 온달로 23,충청북도 단양군 영춘면 하리 147,37.06295564,128.4929221,2019-09-25,4480000,충청북도 단양군
제37회 단양소백산철쭉제,단양읍 상상의 거리 및 소백산 일원,2019-05-23,2019-05-26,제37회 단양소백산철쭉제,소백산철쭉제추진위원회,단양문화원,단양군청,043-420-2552,http://www.sobaeksan.or.kr,제37회 단양소백산철쭉제,충청북도 단양군 단양읍 소백산등산길 12,충청북도 단양군 단양읍 천동리 380-16,36.9647819,128.4207808,2019-09-25,4480000,충청북도 단양군
제15회 차성문화제,기장중학교 일원,2019-10-12,2019-10-13,"전통문화체험, 차성가 연극 및 공연, 차성가 콘서트 등",차성문화제추진위원회,차성문화제추진위원회,부산광역시 기장군청,051-709-4062,http://www.gijang.go.kr/tour/index.gijang,,부산광역시 기장군 기장읍 읍내로 120,부산광역시 기장군 기장읍 대라리 40,35.2448828,129.2183134,2019-09-23,3400000,부산광역시 기장군
고싸움놀이축제,고싸움놀이테마파크,2019-03-30,2019-03-31,"고싸움놀이 축제, 전통공연, 초청공연, 달집 태우기, 각종 체험프로그램 등",고싸움놀이보존회,고싸움놀이보존회,,062-374-3839,http://www.gossaum.com,없음,광주광역시 남구 고싸움로 2,광주광역시 남구 칠석동 619,35.069218,126.835969,2019-09-01,3610000,광주광역시 남구
굿모닝 양림,양림동 일원,2018-10-13,2018-10-15,"1. 전시 : 예술가아카이브전,  양림동의 화가들,  양림 사진전 등 2. 공연 : 가을숲속음악회, 클래식음악회 등 3. 참여 : 시낭송대회, 나도 양림 시낭송가 ○ 체험 : 공예/가을우체통(편지쓰기)등 4. 인문학강의",남구문화원+굿모닝 양림 행사추진위원회,광주광역시 남구,,062-607-2315,http://www.goodmorningyangrim.com/,없음,광주광역시 남구 사직길 49-1,광주광역시 남구 사동 177,35.1416231,126.9114941,2019-09-01,3610000,광주광역시 남구
경주세계차문화축제,"월정교, 보문일원",2019-09-27,2019-09-30,국내외 차시음 및 다도문화 체험 등,경주세계차문화축제조직위원회,경주시,,,,,,경상북도 경주시 교동 274,35.82896048,129.2173165,2019-09-11,5050000,경상북도 경주시
제47회 신라문화제,"경주 황성공원 일대, 시가지 일원",2019-10-03,2019-10-09,"화랑원화 선발대회, 소망 돌탑 쌓기대회, 마상무예공연 등","신라문화선양회, (사)한국예총 경주지회",경주시,"문화체육관광부, 경상북도 등",054-779-6072,http://www.gyeongju.go.kr/sillafestival,,경상북도 경주시 용담로 79-48(황성동),경상북도 경주시 황성동 1022-1 경주실내체육관,35.86064257,129.2090768,2019-09-11,5050000,경상북도 경주시
2019 경주한우와 농축수산물 한마당축제,황성공원 공설운동장 일원,2019-10-04,2019-10-06,"가래떡 최장 만들기 도전, 지역농특산물 판매 등","(사)한국농업경영인경주시연합회, (사)전국한우협회경주시지부",경주시,"경주시, 경주시의회, 경주경찰서 등",054-743-7990,,,경상북도 경주시 용담로 79-41(황성동),경상북도 경주시 황성동 산1-1,35.8599824,129.2119786,2019-09-11,5050000,경상북도 경주시
2018 수원독서문화축제,선경도서관+행궁광장+수원전통문화관,2018-09-06,2018-09-09,독서축제,수원시 도서관사업소,수원시,,031-228-4802,,,경기도 수원시 팔달구 신풍로23번길 68(신풍동),,37.283861,127.010433,2019-12-17,3740000,경기도 수원시
2019 수원독서문화축제,장안공원,2019-10-12,2019-10-12,독서축제,수원시 도서관사업소,수원시,,031-228-4802,,돼지열병 확산방지를 위한 축제 취소,"경기도 수원시 팔달구 신풍로 74(장안문 인근, 책고집)",,37.28753704,127.0135776,2019-12-17,3740000,경기도 수원시
2019 수원연극축제,경기상상캠퍼스,2019-05-24,2019-05-26,연극 및 퍼포먼스,(재)수원문화재단,수원시,,031-290-3532,,,"경기도 수원시 권선구 서둔로 166 (서둔동,경기도상상캠퍼스)",,37.2667769,126.9850191,2019-12-17,3740000,경기도 수원시
제55회 수원화성문화제,"화성행궁, 행궁광장, 연무대 등 수원화성 일원",2018-10-05,2018-10-07,제55회 수원화성문화제,(재)수원문화재단,수원시,,031-228-2415,http://www.swcf.or.kr/shcf/,,경기도 수원시 팔달구 행궁로 11 (남창동),,37.28098808,127.0152227,2019-12-17,3740000,경기도 수원시
제56회 수원화성문화제,"화성행궁, 행궁광장, 연무대 등 수원화성 일원",2019-10-03,2019-10-06,제56회 수원화성문화제,(재)수원문화재단,수원시,,031-228-2415,http://www.swcf.or.kr/shcf/,,경기도 수원시 팔달구 행궁로 11 (남창동),,37.28098808,127.0152227,2019-12-17,3740000,경기도 수원시
2019 수원등불축제,수원천,2019-10-03,2019-10-06,수원사랑 등불축제,(재)수원문화재단,수원시,,031-228-2415,http://www.swcf.or.kr/shcf/,,경기도 수원시 팔달구 수원천로392번길 44-6 (방화수류정),,37.28754004,127.018085,2019-12-17,3740000,경기도 수원시
2017 음식 문화축제,화성행궁주차장,2017-09-22,2017-09-24,"한중일 음식코너, 요리경연대회 및 체험행사",갈비중식일식축제협의회 외식업지부,수원시,,031-228-2233,,,경기도 수원시 팔달구 정조로 825,경기도 수원시 팔달구 남창동 6-2,37.28188202,127.014393,2019-12-17,3740000,경기도 수원시
2018 음식 문화축제,화성행궁주차장,2018-10-05,2018-10-07,"한중일 음식코너, 국제 자매도시 조리사 초청 음식전, 요리경연대회 및 무대공연",갈비중식일식축제협의회 외식업지부,수원시,,031-228-2233,,,경기도 수원시 팔달구 정조로 825,경기도 수원시 팔달구 남창동 6-2,37.28188202,127.014393,2019-12-17,3740000,경기도 수원시
2019 음식 문화축제,신풍지구남측부지(구 우체국 자리),2019-10-03,2019-10-06,"국제 자매도시 조리사 초청 음식전, 음식문화개선 홍보관 등",갈비중식일식축제협의회 외식업지부,수원시,,031-228-2233,,,경기도 수원시 팔달구 정조로 825,경기도 수원시 팔달구 남창동 6-2,37.28188202,127.014393,2019-12-17,3740000,경기도 수원시
서리풀페스티벌,서초구 전역,2018-09-08,2018-09-16,문화예술축제,서리풀페스티벌 조직위원회,"서초구, 서초문화재단",서울시 등,02-2155-6228,www.seocho.go.kr,,서울특별시 서초구 남부순환로 2584,서울특별시 서초구 서초동 1376-3,37.483601,127.032662,2018-10-11,3210000,서울특별시 서초구
삼척맹방유채꽃축제,삼척시 근덕면 삼척로 유채밭 일대,2018-04-06,2018-04-15,"딸기체험, 유채꽃 사진전",삼척맹방유채꽃축제위원회,삼척맹방유채꽃축제위원회,삼척시,033-570-3372,http://tour.samcheok.go.kr/03joy/02_03.jsp,"덕산해수욕장, 맹방해수욕장",강원도 삼척시 근덕면 삼척로 3992-8,강원도 삼척시 근덕면 승공리,37.405447,129.205264,2018-08-21,4240000,강원도 삼척시
삼척황영조국제마라톤대회,엑스포광장,2018-04-22,2018-04-22,"5Km,10Km,Half, Full경기","강원일보사,전국마라톤협회","강원일보사,전국마라톤협회",삼척시,033-570-3727,http://www.samcheokmarathon.com,"황영조기념공원,환선굴, 해양레일바이크",강원도 삼척시 엑스포로 45,강원도 삼척시 성남동 1-5,37.438232,129.160145,2018-08-21,4240000,강원도 삼척시
삼척장미축제,삼척장미공원,2018-05-18,2018-05-22,"전시,문화공연,체험,이벤트행사,나눔,참여행사 등",삼척시,삼척시,,033-570-3530,,"장미공원,엑스포광장,환선굴,해양레일바이크",강원도 삼척시 오십천로 536,강원도 삼척시 정상동 232,37.433569,129.176647,2018-08-21,4240000,강원도 삼척시
삼척정월대보름축제,엑스포광장,2018-02-21,2018-02-25,"기줄다리기, 민속행사, 재례행사",삼척정월대보름재위원회,삼척정월대보름재위원회,삼척시,033-573-2882,http://fullmoonfestivall.or.kr,"박물관, 동굴신비관, 죽서루",강원도 삼척시 엑스포로 45,강원도 삼척시 성남동 1-5,37.438232,129.160145,2018-08-21,4240000,강원도 삼척시
삼척동해왕이사부독도축제,문화예술회관 및 오십천 일원,2018-09-21,2018-09-23,"공연,대회,학술,체험,먹거리행사",삼척시,강원도민일보,삼척시,033-570-3530,http://www.yisabu.com,"박물관, 엑스포광장, 동굴신비관",강원도 삼척시 엑스포로 45,강원도 삼척시 성남동 1-5,37.438232,129.160145,2018-08-21,4240000,강원도 삼척시
삼척평생학습박람회,문화예술회관 광장,2018-10-27,2018-10-28,"평생학습체험, 공연발표, 작품전시, 작가와놀자",삼척시,삼척시,삼척시,033-570-4433,http://lifelong.samcheok.go.kr/main/,"박물관, 엑스포광장, 동굴신비관",강원도 삼척시 엑스포로 45,강원도 삼척시 성남동 1-5,37.438232,129.160145,2018-08-21,4240000,강원도 삼척시
삼척비치썸패스터벌,삼척해변 일원,2018-07-27,2018-07-29,"유명가수 공연행사, 불꽃쇼, 레크레이션, 카약체험 등",삼척시,삼척시,삼척시,033-570-3841,,삼척해변,강원도 삼척시 테마타운길 19,강원도 삼척시 갈천리,37.467434,129.16943,2018-08-21,4240000,강원도 삼척시
2016 대가야체험축제,"대가야박물관, 대가야역사테마관광지, 대가야문화누리, 관내 일원",2016-04-07,2016-04-10,"36개 체험프로그램, 이조년 전국백일장 등 연계행사, 대가야박물관 기획특별전 등 부대행사, 역사재현극 등",사)대가야체험축제추진위원회,고령군,"문화체육관광부, 경상북도, 경상북도교육청, 한국문화원연합회, 가야문화권지역발전협의회 14개시군, 자매결연기관, 경상북도관광협회, 농협중앙회, 대구은행",054-950-6424,http://fest.daegaya.net,,경상북도 고령군 대가야읍 대가야로 1216,경상북도 고령군 대가야읍 지산리 471-1,35.72107614,128.2601559,2019-09-30,5200000,경상북도 고령군
제15회 진안고원 운장산고로쇠축제,주천면 운일암반일암 삼거광장,2019-03-16,2019-03-17,고로쇠 판매외,진안고원운장산고로쇠축제추진위원회,전라북도 진안군,지역 유관기관,063-430-2393,www.jinanfestival.com,,,전라북도 진안군 주천면 대불리 75-1,35.980285,127.395513,2019-09-16,4730000,전라북도 진안군
2019 진안고원 꽃잔디축제,꽃잔디동산 및 원영장마을,2019-04-13,2019-05-12,꽃잔디 판매 외,전라북도 진안군,전라북도 진안군,,063-430-2393,www.jinanfestival.com,,,전라북도 진안군 진안읍 연장리 산 23-1,35.781374,127.396033,2019-09-16,4730000,전라북도 진안군
제11회 진안고원 수박축제,동향면 체련공원 일원,2019-07-27,2019-07-28,수박판매외,진안고원수박축제추진위원회,전라북도 진안군,지역 유관기관,063-430-2393,www.jinanfestival.com,,전라북도 진안군 동향면 진성로 1687,전라북도 진안군 동향면 능금리 2198-2,35.84147509,127.5747127,2019-09-16,4730000,전라북도 진안군
2019 진안홍삼축제,마이산 북부일원,2019-10-09,2019-10-13,홍삼판매 및 문화공연,진안홍삼축제추진위원회,전라북도 진안군,전라북도외,063-430-2392,www.jinanfestival.com,,전라북도 진안군 진안읍 마이산로 160,전라북도 진안군 진안읍 단양리 778-3,35.773251,127.4162556,2019-09-16,4730000,전라북도 진안군
이천쌀문화축제,이천시 설봉공원,2019-10-16,2018-10-20,공연+농촌체험+농산물판매,이천쌀문화축제추진위원회,이천시,문화체육관광부,031-645-3093,http://www.recefestival.or.kr,설봉산+한국도자재단,경기도 이천시 경충대로2697번길 306,경기도 이천시 관고동 485,37.27793778,127.4269268,2019-11-29,4070000,경기도 이천시
이천도자기축제,이천시 설봉공원,2019-04-26,2019-05-12,도자기전시+체험,이천시도자기축제추진위원회,이천시,경기도,031-645-3092,http://www.ceramic.or.kr,예스파크(이천도자예술마을) +사기막골도예촌+월전미술관+이천세라피아+이천시립박물관+미란다호텔스파+테르메덴,경기도 이천시 신둔면 도자예술로5번길 109,경기도 이천시 신둔면 고척리 599-6,37.29309775,127.385686,2019-11-29,4070000,경기도 이천시
햇사레장호원복숭아축제,장호원햇사레산지유통센터,2019-09-20,2019-09-22,복숭아축제,"장호원농협, 경기동부과수농협 공동 주관",장호원복숭아축제 추진위원회,이천시 및 장호원기관단체,031-643-0045,http://www.peachfestival.co.kr,축제 행사+수확체험+직판행사 등,경기도 이천시 장호원읍 서동대로8759번길 117,경기도 이천시 장호원읍 장호원리 332-4,37.11809864,127.6121816,2019-11-29,4070000,경기도 이천시
이천인삼축제,이천시 설봉공원,2019-11-01,2019-11-03,인삼판매+먹거리장터+농산물판매,경기동부인삼농협,이천인삼축제추진위원회,이천시,031-645-3094,http://www.kginsam.nonghyup.com,설봉산+이천인삼,경기도 이천시 경충대로2697번길 306,경기도 이천시 관고동 485,37.27793778,127.4269268,2019-11-29,4070000,경기도 이천시
설봉산별빛축제,설봉공원야외대공연장,2019-07-13,2019-08-24,대중예술공연(총 7회공연),(사)이천예총,이천시,이천시,031-634-7300,http://www.2000art.or.kr,"설봉공원(1회 개막공연~6회공연), 장호원 복숭아축제장(7회 폐막공연)",경기도 이천시 경충대로2697번길 304,경기도 이천시 관고동 393-1,37.27792699,127.425921,2019-11-29,4070000,경기도 이천시
체험문화축제,이천시 설봉공원,2019-05-25,2019-05-26,음식만들기+공예체험+스포츠 놀이체험,(사)이천농촌나드리,이천시,이천시,031-636-2723,http://www.2000green.com,설봉공원+이천농촌나드리,경기도 이천시 경충대로2697번길 306,경기도 이천시 관고동 485,37.27793778,127.4269268,2019-11-29,4070000,경기도 이천시
이천백사산수유꽃축제,"백사면 도립리, 송말리, 경사리일원",2019-03-29,2019-03-31,공연+체험+산수유제품판매,이천백사산수유꽃축제추진위원회,이천시,이천시,031-631-2104,http://www.2104sansooyou.com,"반룡송+경사리벽화마을, 원적산, 영원사, 송말리 연당, 김좌근 고택, 검바위 공원",경기도 이천시 백사면 원적로775번길 17,경기도 이천시 백사면 도립리 1006-1,37.34077593,127.4622972,2019-11-29,4070000,경기도 이천시
양양송이축제,양양남대천 둔치 및 부대행사장,2019-09-26,2019-09-29,"송이채취현장체험, 송이보물찾기체험 등",양양군축제위원회,강원도 양양군청,,033-670-2207,http://festival.yangyang.go.kr/site/songi_festival/index.jsp,,,강원도 양양군 양양읍 남문리 226-2,38.073761,128.625101,2019-09-02,4350000,강원도 양양군
양양연어축제,양양남대천 둔치 및 부대행사장,2019-10-24,2019-10-27,"연어맨손잡이체험, 연어탁본 등",양양군축제위원회,강원도 양양군청,,033-670-2724,http://festival.yangyang.go.kr/site/salmon_festival/index.jsp,,,강원도 양양군 양양읍 남문리 226-2,38.073761,128.625101,2019-09-02,4350000,강원도 양양군
양양문화제,양양남대천 둔치 및 부대행사장,2019-06-20,2019-06-22,지역문화예술 전통축제,양양문화제위원회,강원도 양양군청,,033-670-2728,http://festival.yangyang.go.kr/site/hyunsan_festival/index.jsp,,,강원도 양양군 양양읍 남문리 226-2,38.073761,128.625101,2019-09-02,4350000,강원도 양양군
주안미디어문화축제,옛시민회관 쉼터 등 남구 전역,2018-09-08,2018-09-15,"미추홀구의 특색이 살아있는 주민이 쉽게 참여하고 즐기수 있는 대표적인 미디어 축제 (미추홀퍼레이드, 마을웹드라마, 미디어백일장, 인디밴드페스티벌 등)",인천광역시 미추홀구,인천광역시 미추홀구 축제추진위원회,행정안전부,032-880-7978,http://michu.incheon.kr/home/index.asp,"옛 시민회관 쉼터, 영화공간주안(예술영화전용관), 아트애비뉴27 등",,인천광역시 미추홀구 주안동 190-4,37.458746,126.679586,2018-08-29,3510500,인천광역시 미추홀구
아시아문화관광페스티벌,시민회관쉼터,2018-10-20,2018-10-20,"치파오패션쇼, 한복패션쇼, 초청공연 등",미추홀구,미추홀구,,032-880-4766,http://michu.incheon.kr/home/index.asp,,,인천광역시 미추홀구 주안동 190-4,37.458746,126.679586,2018-08-29,3510500,인천광역시 미추홀구
인천 원도사제,용정근린공원,2018-10-13,2018-10-13,"수령행차 퍼레이드, 원도사제, 청활패놀리 등",(사)인천사연구소,미추홀구,,032-880-4667,http://michu.incheon.kr/home/index.asp,,,인천광역시 미추홀구 용현동 666,37.450749,126.641698,2018-08-29,3510500,인천광역시 미추홀구
아라마린페스티벌 in 김포,경인아라뱃길 김포여객터미널(↔계양대교 구간),2019-08-03,2019-08-05,수상레저 스포츠대회 및 공연행사 개최,(주)워터웨이플러스,김포시,인천광역시 서구·계양구/ K-water,031-980-2488,,,경기도 김포시 고촌읍 아라육로270번길 74,,37.59765509,126.7869691,2019-12-02,4090000,경기도 김포시
DMZ 울트라트레일러닝,"김포 평화누리길(파주, 연천 평화누리길 연계)",2019-09-01,2019-09-30,트래킹 마니아층 및 외국인 대상으로 개최되는 차별화된 접경지역 스포츠 행사,"경기도, 김포시, 파주시, 연천군","경기도, 김포시, 파주시, 연천군",,031-980-2489,http://www.dmztrailrun.com/media/,,경기도 김포시 대곶면 대명항1로 110-36,경기도 김포시 대곶면 대명리 551-1,37.6406387,126.539261,2019-12-02,4090000,경기도 김포시
김포예술제,김포아트홀 공연장 및 전시실,2019-12-07,2019-12-07,지역예술문화 콘텐츠 공유 및 공연행사 등,한국예총 김포지회,김포시,,031-980-2318,,,경기도 김포시 사우중로26,,37.61713765,126.718043,2019-12-02,4090000,경기도 김포시
2019 김포 국제무선자동차대회 개최 계획,김포 GRC,2019-10-10,2019-10-14,무선자동차 레이싱 대회 및 체험,김포문화재단,김포시,"경기관광공사, GRC, 현대자동차, 한국경제신문 한경닷컴, 마리나베이서울, 현대유람선, ㈜에바다, HITEC, TeamJamesRACING, G-MADE, Muchmore Racing, TAMIYA",031-980-2488,,,경기도 김포시 통진읍 김포대로 1966,경기도 김포시 통진읍 도사리 849-4,37.68028573,126.6249423,2019-12-02,4090000,경기도 김포시
김포 평화누리길 걷기행사,김포 평화누리길 1~3코스,2019-04-01,2019-10-31,평화누리길 걷기행사,경기관광공사,김포시,,031-980-2489,http://dmz.ggtour.or.kr/index.php,,경기도 김포시 하성면 평화공원로 139,,37.74322967,126.5940602,2019-12-02,4090000,경기도 김포시
Again 서포리！ 응답하라 덕적도！,서포리해변,2019-07-27,2019-08-03,"발리댄스대회, 가족영화제, 공연",옹진문화원,옹진군,,032-899-2242,http://www.ongjin.go.kr/township/index.asp?dept_idx=15,,인천광역시 옹진군 덕적면 덕적남로587번길 28,인천광역시 옹진군 덕적면 서포리 569-20,37.22319007,126.1139153,2019-09-20,3580000,인천광역시 옹진군
국사봉 해맞이행사,영흥면 일원,2019-12-31,2020-01-01,지역주민화합과 관광객유치를 위한 해맞이행사,영흥면내6리 개발위원회,옹진군,,032-899-3814,http://www.ongjin.go.kr/township/index.asp?dept_idx=15,,,인천광역시 옹진군 영흥면 내리 165-1,37.27012096,126.4931449,2019-09-20,3580000,인천광역시 옹진군
제5회 강서낙동강 30리 벚꽃축제,대저생태공원,2019-03-29,2019-03-31,"문화행사, 전시체험행사, 노래자랑, 걷기대회 등",부산광역시 강서구,부산광역시 강서구 축제추진위원회,,051-970-4062,http://festival.bsgangseo.go.kr,축제 관련 정보 제공,,부산광역시 강서구 대저1동 2314-11,35.20984733,128.9845542,2019-12-11,3360000,부산광역시 강서구
순창장류축제,순창전통고추장민속마을 일원,2019-10-18,2019-10-20,"문화공연, 장류체험, 전시,판매, 주민참여 프로그램 등",순창군,순창장류축제추진위원회,"문화체육관광부, 전라북도, 한국관광공사",063-652-9301,http://www.jangfestival.co.kr,"강천산군립공원, 전통고추장민속마을",전라북도 순창군 순창읍 민속마을길 6-3,전라북도 순창군 순창읍 백산리 265-4,35.36860021,127.1099773,2019-10-21,4770000,전라북도 순창군
